[
	{
		"Postal_Code": 7184,
		"Place_Name": "Lengyel",
		"State": "Baranya",
		"State_Abbreviation": "BA",
		"Latitude": 46.3786,
		"Longitude": 18.4357
	},
  {
    "Postal_Code": 7300,
    "Place_Name": "Komló",
    "State": "Baranya",
    "State_Abbreviation": "BA",
    "Latitude": 46.2,
    "Longitude": 18.2667
  },
  {
    "Postal_Code": 7301,
    "Place_Name": "Mecsekpölöske",
    "State": "Baranya",
    "State_Abbreviation": "BA",
    "Latitude": 46.2167,
    "Longitude": 18.2167
  },
  {
    "Postal_Code": 7302,
    "Place_Name": "Mecsekpölöske",
    "State": "Baranya",
    "State_Abbreviation": "BA",
    "Latitude": 46.2167,
    "Longitude": 18.2167
  },
  {
    "Postal_Code": 7303,
    "Place_Name": "Mecsekpölöske",
    "State": "Baranya",
    "State_Abbreviation": "BA",
    "Latitude": 46.2167,
    "Longitude": 18.2167
  },
  {
    "Postal_Code": 7304,
    "Place_Name": "Mánfa",
    "State": "Baranya",
    "State_Abbreviation": "BA",
    "Latitude": 46.1667,
    "Longitude": 18.25
  },
  {
    "Postal_Code": 7305,
    "Place_Name": "Mánfa",
    "State": "Baranya",
    "State_Abbreviation": "BA",
    "Latitude": 46.1667,
    "Longitude": 18.25
  },
  {
    "Postal_Code": 7306,
    "Place_Name": "Mánfa",
    "State": "Baranya",
    "State_Abbreviation": "BA",
    "Latitude": 46.1667,
    "Longitude": 18.25
  },
  {
    "Postal_Code": 7309,
    "Place_Name": "Mánfa",
    "State": "Baranya",
    "State_Abbreviation": "BA",
    "Latitude": 46.1667,
    "Longitude": 18.25
  },
  {
    "Postal_Code": 7331,
    "Place_Name": "Liget",
    "State": "Baranya",
    "State_Abbreviation": "BA",
    "Latitude": 46.2333,
    "Longitude": 18.2
  },
  {
    "Postal_Code": 7332,
    "Place_Name": "Magyaregregy",
    "State": "Baranya",
    "State_Abbreviation": "BA",
    "Latitude": 46.25,
    "Longitude": 18.3167
  },
  {
    "Postal_Code": 7333,
    "Place_Name": "Vékény",
    "State": "Baranya",
    "State_Abbreviation": "BA",
    "Latitude": 46.2667,
    "Longitude": 18.35
  },
  {
    "Postal_Code": 7334,
    "Place_Name": "Szalatnak",
    "State": "Baranya",
    "State_Abbreviation": "BA",
    "Latitude": 46.2833,
    "Longitude": 18.2833
  },
  {
    "Postal_Code": 7342,
    "Place_Name": "Mágocs",
    "State": "Baranya",
    "State_Abbreviation": "BA",
    "Latitude": 46.35,
    "Longitude": 18.2333
  },
  {
    "Postal_Code": 7343,
    "Place_Name": "Nagyhajmás",
    "State": "Baranya",
    "State_Abbreviation": "BA",
    "Latitude": 46.3278,
    "Longitude": 18.2944
  },
  {
    "Postal_Code": 7344,
    "Place_Name": "Mekényes",
    "State": "Baranya",
    "State_Abbreviation": "BA",
    "Latitude": 46.3833,
    "Longitude": 18.3333
  },
  {
    "Postal_Code": 7345,
    "Place_Name": "Alsómocsolád",
    "State": "Baranya",
    "State_Abbreviation": "BA",
    "Latitude": 46.3167,
    "Longitude": 18.25
  },
  {
    "Postal_Code": 7346,
    "Place_Name": "Bikal",
    "State": "Baranya",
    "State_Abbreviation": "BA",
    "Latitude": 46.3333,
    "Longitude": 18.2833
  },
  {
    "Postal_Code": 7347,
    "Place_Name": "Egyházaskozár",
    "State": "Baranya",
    "State_Abbreviation": "BA",
    "Latitude": 46.3333,
    "Longitude": 18.3167
  },
  {
    "Postal_Code": 7348,
    "Place_Name": "Tóf?",
    "State": "Baranya",
    "State_Abbreviation": "BA",
    "Latitude": 46.3167,
    "Longitude": 18.3667
  },
  {
    "Postal_Code": 7349,
    "Place_Name": "Szászvár",
    "State": "Baranya",
    "State_Abbreviation": "BA",
    "Latitude": 46.2667,
    "Longitude": 18.3667
  },
  {
    "Postal_Code": 7351,
    "Place_Name": "Máza",
    "State": "Baranya",
    "State_Abbreviation": "BA",
    "Latitude": 46.2667,
    "Longitude": 18.4
  },
  {
    "Postal_Code": 7362,
    "Place_Name": "Vásárosdombó",
    "State": "Baranya",
    "State_Abbreviation": "BA",
    "Latitude": 46.3,
    "Longitude": 18.15
  },
  {
    "Postal_Code": 7370,
    "Place_Name": "Varga",
    "State": "Baranya",
    "State_Abbreviation": "BA",
    "Latitude": 46.2333,
    "Longitude": 18.15
  },
  {
    "Postal_Code": 7381,
    "Place_Name": "Tékes",
    "State": "Baranya",
    "State_Abbreviation": "BA",
    "Latitude": 46.2833,
    "Longitude": 18.1667
  },
  {
    "Postal_Code": 7383,
    "Place_Name": "Szágy",
    "State": "Baranya",
    "State_Abbreviation": "BA",
    "Latitude": 46.2333,
    "Longitude": 17.95
  },
  {
    "Postal_Code": 7384,
    "Place_Name": "Baranyajen?",
    "State": "Baranya",
    "State_Abbreviation": "BA",
    "Latitude": 46.2667,
    "Longitude": 18.05
  },
  {
    "Postal_Code": 7385,
    "Place_Name": "Gödre",
    "State": "Baranya",
    "State_Abbreviation": "BA",
    "Latitude": 46.2833,
    "Longitude": 17.9833
  },
  {
    "Postal_Code": 7386,
    "Place_Name": "Gödre",
    "State": "Baranya",
    "State_Abbreviation": "BA",
    "Latitude": 46.2833,
    "Longitude": 17.9833
  },
  {
    "Postal_Code": 7391,
    "Place_Name": "Kisbeszterce",
    "State": "Baranya",
    "State_Abbreviation": "BA",
    "Latitude": 46.2,
    "Longitude": 18.0333
  },
  {
    "Postal_Code": 7393,
    "Place_Name": "Bakóca",
    "State": "Baranya",
    "State_Abbreviation": "BA",
    "Latitude": 46.2167,
    "Longitude": 18
  },
  {
    "Postal_Code": 7394,
    "Place_Name": "Bodolyabér",
    "State": "Baranya",
    "State_Abbreviation": "BA",
    "Latitude": 46.2,
    "Longitude": 18.1167
  },
  {
    "Postal_Code": 7396,
    "Place_Name": "Magyarszék",
    "State": "Baranya",
    "State_Abbreviation": "BA",
    "Latitude": 46.2,
    "Longitude": 18.2
  },
  {
    "Postal_Code": 7600,
    "Place_Name": "Pécs",
    "State": "Baranya",
    "State_Abbreviation": "BA",
    "Latitude": 46.0967,
    "Longitude": 18.2068
  },
  {
    "Postal_Code": 7601,
    "Place_Name": "Pécs",
    "State": "Baranya",
    "State_Abbreviation": "BA",
    "Latitude": 46.0967,
    "Longitude": 18.2068
  },
  {
    "Postal_Code": 7602,
    "Place_Name": "Pécs",
    "State": "Baranya",
    "State_Abbreviation": "BA",
    "Latitude": 46.0967,
    "Longitude": 18.2068
  },
  {
    "Postal_Code": 7603,
    "Place_Name": "Pécs",
    "State": "Baranya",
    "State_Abbreviation": "BA",
    "Latitude": 46.0967,
    "Longitude": 18.2068
  },
  {
    "Postal_Code": 7604,
    "Place_Name": "Pécs",
    "State": "Baranya",
    "State_Abbreviation": "BA",
    "Latitude": 46.0967,
    "Longitude": 18.2068
  },
  {
    "Postal_Code": 7605,
    "Place_Name": "Pécs",
    "State": "Baranya",
    "State_Abbreviation": "BA",
    "Latitude": 46.0967,
    "Longitude": 18.2068
  },
  {
    "Postal_Code": 7606,
    "Place_Name": "Pécs",
    "State": "Baranya",
    "State_Abbreviation": "BA",
    "Latitude": 46.0967,
    "Longitude": 18.2068
  },
  {
    "Postal_Code": 7607,
    "Place_Name": "Pécs",
    "State": "Baranya",
    "State_Abbreviation": "BA",
    "Latitude": 46.0967,
    "Longitude": 18.2068
  },
  {
    "Postal_Code": 7608,
    "Place_Name": "Pécs",
    "State": "Baranya",
    "State_Abbreviation": "BA",
    "Latitude": 46.0967,
    "Longitude": 18.2068
  },
  {
    "Postal_Code": 7610,
    "Place_Name": "Pécs",
    "State": "Baranya",
    "State_Abbreviation": "BA",
    "Latitude": 46.0967,
    "Longitude": 18.2068
  },
  {
    "Postal_Code": 7611,
    "Place_Name": "Pécs",
    "State": "Baranya",
    "State_Abbreviation": "BA",
    "Latitude": 46.0967,
    "Longitude": 18.2068
  },
  {
    "Postal_Code": 7612,
    "Place_Name": "Pécs",
    "State": "Baranya",
    "State_Abbreviation": "BA",
    "Latitude": 46.0967,
    "Longitude": 18.2068
  },
  {
    "Postal_Code": 7613,
    "Place_Name": "Pécs",
    "State": "Baranya",
    "State_Abbreviation": "BA",
    "Latitude": 46.0967,
    "Longitude": 18.2068
  },
  {
    "Postal_Code": 7614,
    "Place_Name": "Pécs",
    "State": "Baranya",
    "State_Abbreviation": "BA",
    "Latitude": 46.0967,
    "Longitude": 18.2068
  },
  {
    "Postal_Code": 7615,
    "Place_Name": "Pécs",
    "State": "Baranya",
    "State_Abbreviation": "BA",
    "Latitude": 46.0967,
    "Longitude": 18.2068
  },
  {
    "Postal_Code": 7616,
    "Place_Name": "Pécs",
    "State": "Baranya",
    "State_Abbreviation": "BA",
    "Latitude": 46.0967,
    "Longitude": 18.2068
  },
  {
    "Postal_Code": 7617,
    "Place_Name": "Pécs",
    "State": "Baranya",
    "State_Abbreviation": "BA",
    "Latitude": 46.0967,
    "Longitude": 18.2068
  },
  {
    "Postal_Code": 7618,
    "Place_Name": "Pécs",
    "State": "Baranya",
    "State_Abbreviation": "BA",
    "Latitude": 46.0967,
    "Longitude": 18.2068
  },
  {
    "Postal_Code": 7619,
    "Place_Name": "Pécs",
    "State": "Baranya",
    "State_Abbreviation": "BA",
    "Latitude": 46.0967,
    "Longitude": 18.2068
  },
  {
    "Postal_Code": 7621,
    "Place_Name": "Pécs",
    "State": "Baranya",
    "State_Abbreviation": "BA",
    "Latitude": 46.0967,
    "Longitude": 18.2068
  },
  {
    "Postal_Code": 7622,
    "Place_Name": "Pécs",
    "State": "Baranya",
    "State_Abbreviation": "BA",
    "Latitude": 46.0967,
    "Longitude": 18.2068
  },
  {
    "Postal_Code": 7623,
    "Place_Name": "Pécs",
    "State": "Baranya",
    "State_Abbreviation": "BA",
    "Latitude": 46.0967,
    "Longitude": 18.2068
  },
  {
    "Postal_Code": 7624,
    "Place_Name": "Pécs",
    "State": "Baranya",
    "State_Abbreviation": "BA",
    "Latitude": 46.0967,
    "Longitude": 18.2068
  },
  {
    "Postal_Code": 7625,
    "Place_Name": "Pécs",
    "State": "Baranya",
    "State_Abbreviation": "BA",
    "Latitude": 46.0967,
    "Longitude": 18.2068
  },
  {
    "Postal_Code": 7626,
    "Place_Name": "Pécs",
    "State": "Baranya",
    "State_Abbreviation": "BA",
    "Latitude": 46.0967,
    "Longitude": 18.2068
  },
  {
    "Postal_Code": 7627,
    "Place_Name": "Pécs",
    "State": "Baranya",
    "State_Abbreviation": "BA",
    "Latitude": 46.0967,
    "Longitude": 18.2068
  },
  {
    "Postal_Code": 7628,
    "Place_Name": "Pécs",
    "State": "Baranya",
    "State_Abbreviation": "BA",
    "Latitude": 46.0967,
    "Longitude": 18.2068
  },
  {
    "Postal_Code": 7629,
    "Place_Name": "Pécs",
    "State": "Baranya",
    "State_Abbreviation": "BA",
    "Latitude": 46.0967,
    "Longitude": 18.2068
  },
  {
    "Postal_Code": 7630,
    "Place_Name": "Pécs",
    "State": "Baranya",
    "State_Abbreviation": "BA",
    "Latitude": 46.0967,
    "Longitude": 18.2068
  },
  {
    "Postal_Code": 7631,
    "Place_Name": "Pécs",
    "State": "Baranya",
    "State_Abbreviation": "BA",
    "Latitude": 46.0967,
    "Longitude": 18.2068
  },
  {
    "Postal_Code": 7632,
    "Place_Name": "Pécs",
    "State": "Baranya",
    "State_Abbreviation": "BA",
    "Latitude": 46.0967,
    "Longitude": 18.2068
  },
  {
    "Postal_Code": 7633,
    "Place_Name": "Pécs",
    "State": "Baranya",
    "State_Abbreviation": "BA",
    "Latitude": 46.0967,
    "Longitude": 18.2068
  },
  {
    "Postal_Code": 7634,
    "Place_Name": "Pécs",
    "State": "Baranya",
    "State_Abbreviation": "BA",
    "Latitude": 46.0967,
    "Longitude": 18.2068
  },
  {
    "Postal_Code": 7635,
    "Place_Name": "Pécs",
    "State": "Baranya",
    "State_Abbreviation": "BA",
    "Latitude": 46.0967,
    "Longitude": 18.2068
  },
  {
    "Postal_Code": 7636,
    "Place_Name": "Pécs",
    "State": "Baranya",
    "State_Abbreviation": "BA",
    "Latitude": 46.0967,
    "Longitude": 18.2068
  },
  {
    "Postal_Code": 7639,
    "Place_Name": "Pécs",
    "State": "Baranya",
    "State_Abbreviation": "BA",
    "Latitude": 46.0967,
    "Longitude": 18.2068
  },
  {
    "Postal_Code": 7643,
    "Place_Name": "Pécs",
    "State": "Baranya",
    "State_Abbreviation": "BA",
    "Latitude": 46.0967,
    "Longitude": 18.2068
  },
  {
    "Postal_Code": 7644,
    "Place_Name": "Pécs",
    "State": "Baranya",
    "State_Abbreviation": "BA",
    "Latitude": 46.0967,
    "Longitude": 18.2068
  },
  {
    "Postal_Code": 7645,
    "Place_Name": "Pécs",
    "State": "Baranya",
    "State_Abbreviation": "BA",
    "Latitude": 46.0967,
    "Longitude": 18.2068
  },
  {
    "Postal_Code": 7646,
    "Place_Name": "Pécs",
    "State": "Baranya",
    "State_Abbreviation": "BA",
    "Latitude": 46.0967,
    "Longitude": 18.2068
  },
  {
    "Postal_Code": 7647,
    "Place_Name": "Pécs",
    "State": "Baranya",
    "State_Abbreviation": "BA",
    "Latitude": 46.0967,
    "Longitude": 18.2068
  },
  {
    "Postal_Code": 7648,
    "Place_Name": "Pécs",
    "State": "Baranya",
    "State_Abbreviation": "BA",
    "Latitude": 46.0967,
    "Longitude": 18.2068
  },
  {
    "Postal_Code": 7650,
    "Place_Name": "Pécs",
    "State": "Baranya",
    "State_Abbreviation": "BA",
    "Latitude": 46.0967,
    "Longitude": 18.2068
  },
  {
    "Postal_Code": 7661,
    "Place_Name": "Szell?",
    "State": "Baranya",
    "State_Abbreviation": "BA",
    "Latitude": 46.0667,
    "Longitude": 18.4667
  },
  {
    "Postal_Code": 7663,
    "Place_Name": "Máriakéménd",
    "State": "Baranya",
    "State_Abbreviation": "BA",
    "Latitude": 46.0333,
    "Longitude": 18.4667
  },
  {
    "Postal_Code": 7664,
    "Place_Name": "Szilágy",
    "State": "Baranya",
    "State_Abbreviation": "BA",
    "Latitude": 46.1,
    "Longitude": 18.4167
  },
  {
    "Postal_Code": 7666,
    "Place_Name": "Pogány",
    "State": "Baranya",
    "State_Abbreviation": "BA",
    "Latitude": 45.98,
    "Longitude": 18.26
  },
  {
    "Postal_Code": 7668,
    "Place_Name": "Keszü",
    "State": "Baranya",
    "State_Abbreviation": "BA",
    "Latitude": 46.0167,
    "Longitude": 18.1833
  },
  {
    "Postal_Code": 7671,
    "Place_Name": "Zók",
    "State": "Baranya",
    "State_Abbreviation": "BA",
    "Latitude": 46,
    "Longitude": 18.1
  },
  {
    "Postal_Code": 7672,
    "Place_Name": "Boda",
    "State": "Baranya",
    "State_Abbreviation": "BA",
    "Latitude": 46.0833,
    "Longitude": 18.05
  },
  {
    "Postal_Code": 7673,
    "Place_Name": "Cserkút",
    "State": "Baranya",
    "State_Abbreviation": "BA",
    "Latitude": 46.0667,
    "Longitude": 18.1333
  },
  {
    "Postal_Code": 7675,
    "Place_Name": "Bakonya",
    "State": "Baranya",
    "State_Abbreviation": "BA",
    "Latitude": 46.0833,
    "Longitude": 18.0833
  },
  {
    "Postal_Code": 7677,
    "Place_Name": "Orf?",
    "State": "Baranya",
    "State_Abbreviation": "BA",
    "Latitude": 46.1333,
    "Longitude": 18.15
  },
  {
    "Postal_Code": 7678,
    "Place_Name": "Abaliget",
    "State": "Baranya",
    "State_Abbreviation": "BA",
    "Latitude": 46.15,
    "Longitude": 18.1167
  },
  {
    "Postal_Code": 7681,
    "Place_Name": "Szentkatalin",
    "State": "Baranya",
    "State_Abbreviation": "BA",
    "Latitude": 46.1667,
    "Longitude": 18.05
  },
  {
    "Postal_Code": 7682,
    "Place_Name": "Bükkösd",
    "State": "Baranya",
    "State_Abbreviation": "BA",
    "Latitude": 46.1,
    "Longitude": 17.9833
  },
  {
    "Postal_Code": 7683,
    "Place_Name": "Helesfa",
    "State": "Baranya",
    "State_Abbreviation": "BA",
    "Latitude": 46.0833,
    "Longitude": 17.9833
  },
  {
    "Postal_Code": 7691,
    "Place_Name": "Dinnyeberki",
    "State": "Baranya",
    "State_Abbreviation": "BA",
    "Latitude": 46.0833,
    "Longitude": 17.95
  },
  {
    "Postal_Code": 7693,
    "Place_Name": "Dinnyeberki",
    "State": "Baranya",
    "State_Abbreviation": "BA",
    "Latitude": 46.0833,
    "Longitude": 17.95
  },
  {
    "Postal_Code": 7694,
    "Place_Name": "Hosszúhetény",
    "State": "Baranya",
    "State_Abbreviation": "BA",
    "Latitude": 46.15,
    "Longitude": 18.35
  },
  {
    "Postal_Code": 7695,
    "Place_Name": "Ófalu",
    "State": "Baranya",
    "State_Abbreviation": "BA",
    "Latitude": 46.2167,
    "Longitude": 18.5333
  },
  {
    "Postal_Code": 7696,
    "Place_Name": "Hidas",
    "State": "Baranya",
    "State_Abbreviation": "BA",
    "Latitude": 46.2667,
    "Longitude": 18.5
  },
  {
    "Postal_Code": 7700,
    "Place_Name": "Mohács",
    "State": "Baranya",
    "State_Abbreviation": "BA",
    "Latitude": 45.9931,
    "Longitude": 18.6831
  },
  {
    "Postal_Code": 7701,
    "Place_Name": "Mohács",
    "State": "Baranya",
    "State_Abbreviation": "BA",
    "Latitude": 45.9931,
    "Longitude": 18.6831
  },
  {
    "Postal_Code": 7702,
    "Place_Name": "Mohács",
    "State": "Baranya",
    "State_Abbreviation": "BA",
    "Latitude": 45.9931,
    "Longitude": 18.6831
  },
  {
    "Postal_Code": 7711,
    "Place_Name": "Bár",
    "State": "Baranya",
    "State_Abbreviation": "BA",
    "Latitude": 46.05,
    "Longitude": 18.7167
  },
  {
    "Postal_Code": 7712,
    "Place_Name": "Dunaszekcs?",
    "State": "Baranya",
    "State_Abbreviation": "BA",
    "Latitude": 46.0833,
    "Longitude": 18.7667
  },
  {
    "Postal_Code": 7714,
    "Place_Name": "Dunaszekcs?",
    "State": "Baranya",
    "State_Abbreviation": "BA",
    "Latitude": 46.0833,
    "Longitude": 18.7667
  },
  {
    "Postal_Code": 7715,
    "Place_Name": "Dunaszekcs?",
    "State": "Baranya",
    "State_Abbreviation": "BA",
    "Latitude": 46.0833,
    "Longitude": 18.7667
  },
  {
    "Postal_Code": 7716,
    "Place_Name": "Homorúd",
    "State": "Baranya",
    "State_Abbreviation": "BA",
    "Latitude": 45.9814,
    "Longitude": 18.7922
  },
  {
    "Postal_Code": 7717,
    "Place_Name": "Kölked",
    "State": "Baranya",
    "State_Abbreviation": "BA",
    "Latitude": 45.9503,
    "Longitude": 18.7078
  },
  {
    "Postal_Code": 7718,
    "Place_Name": "Udvar",
    "State": "Baranya",
    "State_Abbreviation": "BA",
    "Latitude": 45.9006,
    "Longitude": 18.6597
  },
  {
    "Postal_Code": 7720,
    "Place_Name": "Apátvarasd",
    "State": "Baranya",
    "State_Abbreviation": "BA",
    "Latitude": 46.1833,
    "Longitude": 18.4833
  },
  {
    "Postal_Code": 7723,
    "Place_Name": "Erd?smecske",
    "State": "Baranya",
    "State_Abbreviation": "BA",
    "Latitude": 46.1833,
    "Longitude": 18.5167
  },
  {
    "Postal_Code": 7724,
    "Place_Name": "Feked",
    "State": "Baranya",
    "State_Abbreviation": "BA",
    "Latitude": 46.1667,
    "Longitude": 18.5667
  },
  {
    "Postal_Code": 7725,
    "Place_Name": "Szebény",
    "State": "Baranya",
    "State_Abbreviation": "BA",
    "Latitude": 46.1333,
    "Longitude": 18.6
  },
  {
    "Postal_Code": 7726,
    "Place_Name": "Véménd",
    "State": "Baranya",
    "State_Abbreviation": "BA",
    "Latitude": 46.15,
    "Longitude": 18.6167
  },
  {
    "Postal_Code": 7727,
    "Place_Name": "Palotabozsok",
    "State": "Baranya",
    "State_Abbreviation": "BA",
    "Latitude": 46.1333,
    "Longitude": 18.65
  },
  {
    "Postal_Code": 7728,
    "Place_Name": "Görcsönydoboka",
    "State": "Baranya",
    "State_Abbreviation": "BA",
    "Latitude": 46.0667,
    "Longitude": 18.6333
  },
  {
    "Postal_Code": 7731,
    "Place_Name": "Nagypall",
    "State": "Baranya",
    "State_Abbreviation": "BA",
    "Latitude": 46.15,
    "Longitude": 18.45
  },
  {
    "Postal_Code": 7732,
    "Place_Name": "Fazekasboda",
    "State": "Baranya",
    "State_Abbreviation": "BA",
    "Latitude": 46.1167,
    "Longitude": 18.4833
  },
  {
    "Postal_Code": 7733,
    "Place_Name": "Geresdlak",
    "State": "Baranya",
    "State_Abbreviation": "BA",
    "Latitude": 46.1,
    "Longitude": 18.5333
  },
  {
    "Postal_Code": 7735,
    "Place_Name": "Sz?r",
    "State": "Baranya",
    "State_Abbreviation": "BA",
    "Latitude": 46.1,
    "Longitude": 18.5833
  },
  {
    "Postal_Code": 7737,
    "Place_Name": "Székelyszabar",
    "State": "Baranya",
    "State_Abbreviation": "BA",
    "Latitude": 46.05,
    "Longitude": 18.6
  },
  {
    "Postal_Code": 7741,
    "Place_Name": "Bogád",
    "State": "Baranya",
    "State_Abbreviation": "BA",
    "Latitude": 46.0833,
    "Longitude": 18.3333
  },
  {
    "Postal_Code": 7744,
    "Place_Name": "Ellend",
    "State": "Baranya",
    "State_Abbreviation": "BA",
    "Latitude": 46.05,
    "Longitude": 18.3833
  },
  {
    "Postal_Code": 7745,
    "Place_Name": "Olasz",
    "State": "Baranya",
    "State_Abbreviation": "BA",
    "Latitude": 46.0167,
    "Longitude": 18.4167
  },
  {
    "Postal_Code": 7747,
    "Place_Name": "Belvárdgyula",
    "State": "Baranya",
    "State_Abbreviation": "BA",
    "Latitude": 45.9722,
    "Longitude": 18.4339
  },
  {
    "Postal_Code": 7751,
    "Place_Name": "Szederkény",
    "State": "Baranya",
    "State_Abbreviation": "BA",
    "Latitude": 45.9969,
    "Longitude": 18.4578
  },
  {
    "Postal_Code": 7752,
    "Place_Name": "Versend",
    "State": "Baranya",
    "State_Abbreviation": "BA",
    "Latitude": 45.9953,
    "Longitude": 18.5114
  },
  {
    "Postal_Code": 7753,
    "Place_Name": "Szajk",
    "State": "Baranya",
    "State_Abbreviation": "BA",
    "Latitude": 45.9906,
    "Longitude": 18.5314
  },
  {
    "Postal_Code": 7754,
    "Place_Name": "Bóly",
    "State": "Baranya",
    "State_Abbreviation": "BA",
    "Latitude": 45.9672,
    "Longitude": 18.5183
  },
  {
    "Postal_Code": 7755,
    "Place_Name": "Töttös",
    "State": "Baranya",
    "State_Abbreviation": "BA",
    "Latitude": 45.9156,
    "Longitude": 18.5422
  },
  {
    "Postal_Code": 7756,
    "Place_Name": "Borjád",
    "State": "Baranya",
    "State_Abbreviation": "BA",
    "Latitude": 45.9339,
    "Longitude": 18.4672
  },
  {
    "Postal_Code": 7757,
    "Place_Name": "Babarc",
    "State": "Baranya",
    "State_Abbreviation": "BA",
    "Latitude": 45.9981,
    "Longitude": 18.5547
  },
  {
    "Postal_Code": 7759,
    "Place_Name": "Kisnyárád",
    "State": "Baranya",
    "State_Abbreviation": "BA",
    "Latitude": 46.0333,
    "Longitude": 18.5667
  },
  {
    "Postal_Code": 7761,
    "Place_Name": "Kozármisleny",
    "State": "Baranya",
    "State_Abbreviation": "BA",
    "Latitude": 46.0333,
    "Longitude": 18.3
  },
  {
    "Postal_Code": 7762,
    "Place_Name": "Pécsudvard",
    "State": "Baranya",
    "State_Abbreviation": "BA",
    "Latitude": 46.0167,
    "Longitude": 18.2833
  },
  {
    "Postal_Code": 7763,
    "Place_Name": "Szemely",
    "State": "Baranya",
    "State_Abbreviation": "BA",
    "Latitude": 46.0167,
    "Longitude": 18.3333
  },
  {
    "Postal_Code": 7766,
    "Place_Name": "Újpetre",
    "State": "Baranya",
    "State_Abbreviation": "BA",
    "Latitude": 45.9367,
    "Longitude": 18.3625
  },
  {
    "Postal_Code": 7768,
    "Place_Name": "Vokány",
    "State": "Baranya",
    "State_Abbreviation": "BA",
    "Latitude": 45.9094,
    "Longitude": 18.3361
  },
  {
    "Postal_Code": 7771,
    "Place_Name": "Palkonya",
    "State": "Baranya",
    "State_Abbreviation": "BA",
    "Latitude": 45.8967,
    "Longitude": 18.3897
  },
  {
    "Postal_Code": 7772,
    "Place_Name": "Villánykövesd",
    "State": "Baranya",
    "State_Abbreviation": "BA",
    "Latitude": 45.8822,
    "Longitude": 18.4253
  },
  {
    "Postal_Code": 7773,
    "Place_Name": "Villány",
    "State": "Baranya",
    "State_Abbreviation": "BA",
    "Latitude": 45.8689,
    "Longitude": 18.4539
  },
  {
    "Postal_Code": 7774,
    "Place_Name": "Márok",
    "State": "Baranya",
    "State_Abbreviation": "BA",
    "Latitude": 45.8736,
    "Longitude": 18.5086
  },
  {
    "Postal_Code": 7775,
    "Place_Name": "Illocska",
    "State": "Baranya",
    "State_Abbreviation": "BA",
    "Latitude": 45.8003,
    "Longitude": 18.5225
  },
  {
    "Postal_Code": 7781,
    "Place_Name": "Ivándárda",
    "State": "Baranya",
    "State_Abbreviation": "BA",
    "Latitude": 45.8306,
    "Longitude": 18.5903
  },
  {
    "Postal_Code": 7782,
    "Place_Name": "Bezedek",
    "State": "Baranya",
    "State_Abbreviation": "BA",
    "Latitude": 45.8647,
    "Longitude": 18.5864
  },
  {
    "Postal_Code": 7783,
    "Place_Name": "Majs",
    "State": "Baranya",
    "State_Abbreviation": "BA",
    "Latitude": 45.9092,
    "Longitude": 18.6003
  },
  {
    "Postal_Code": 7784,
    "Place_Name": "Nagynyárád",
    "State": "Baranya",
    "State_Abbreviation": "BA",
    "Latitude": 45.9433,
    "Longitude": 18.5781
  },
  {
    "Postal_Code": 7785,
    "Place_Name": "Sátorhely",
    "State": "Baranya",
    "State_Abbreviation": "BA",
    "Latitude": 45.9408,
    "Longitude": 18.6344
  },
  {
    "Postal_Code": 7800,
    "Place_Name": "Kisharsány",
    "State": "Baranya",
    "State_Abbreviation": "BA",
    "Latitude": 45.8586,
    "Longitude": 18.3642
  },
  {
    "Postal_Code": 7801,
    "Place_Name": "Nagytótfalu",
    "State": "Baranya",
    "State_Abbreviation": "BA",
    "Latitude": 45.8639,
    "Longitude": 18.3453
  },
  {
    "Postal_Code": 7802,
    "Place_Name": "Nagytótfalu",
    "State": "Baranya",
    "State_Abbreviation": "BA",
    "Latitude": 45.8639,
    "Longitude": 18.3453
  },
  {
    "Postal_Code": 7811,
    "Place_Name": "Csarnóta",
    "State": "Baranya",
    "State_Abbreviation": "BA",
    "Latitude": 45.8953,
    "Longitude": 18.2147
  },
  {
    "Postal_Code": 7812,
    "Place_Name": "Garé",
    "State": "Baranya",
    "State_Abbreviation": "BA",
    "Latitude": 45.9189,
    "Longitude": 18.1933
  },
  {
    "Postal_Code": 7813,
    "Place_Name": "Szava",
    "State": "Baranya",
    "State_Abbreviation": "BA",
    "Latitude": 45.9022,
    "Longitude": 18.1761
  },
  {
    "Postal_Code": 7814,
    "Place_Name": "Ócsárd",
    "State": "Baranya",
    "State_Abbreviation": "BA",
    "Latitude": 45.9342,
    "Longitude": 18.1519
  },
  {
    "Postal_Code": 7815,
    "Place_Name": "Harkány",
    "State": "Baranya",
    "State_Abbreviation": "BA",
    "Latitude": 45.8478,
    "Longitude": 18.2375
  },
  {
    "Postal_Code": 7817,
    "Place_Name": "Márfa",
    "State": "Baranya",
    "State_Abbreviation": "BA",
    "Latitude": 45.86,
    "Longitude": 18.1853
  },
  {
    "Postal_Code": 7822,
    "Place_Name": "Nagyharsány",
    "State": "Baranya",
    "State_Abbreviation": "BA",
    "Latitude": 45.8464,
    "Longitude": 18.3922
  },
  {
    "Postal_Code": 7823,
    "Place_Name": "Kistapolca",
    "State": "Baranya",
    "State_Abbreviation": "BA",
    "Latitude": 45.8219,
    "Longitude": 18.3847
  },
  {
    "Postal_Code": 7824,
    "Place_Name": "Egyházasharaszti",
    "State": "Baranya",
    "State_Abbreviation": "BA",
    "Latitude": 45.8094,
    "Longitude": 18.3336
  },
  {
    "Postal_Code": 7826,
    "Place_Name": "Alsószentmárton",
    "State": "Baranya",
    "State_Abbreviation": "BA",
    "Latitude": 45.7892,
    "Longitude": 18.3056
  },
  {
    "Postal_Code": 7827,
    "Place_Name": "Beremend",
    "State": "Baranya",
    "State_Abbreviation": "BA",
    "Latitude": 45.7853,
    "Longitude": 18.4347
  },
  {
    "Postal_Code": 7831,
    "Place_Name": "Pellérd",
    "State": "Baranya",
    "State_Abbreviation": "BA",
    "Latitude": 46.0333,
    "Longitude": 18.15
  },
  {
    "Postal_Code": 7833,
    "Place_Name": "Sz?ke",
    "State": "Baranya",
    "State_Abbreviation": "BA",
    "Latitude": 45.96,
    "Longitude": 18.1858
  },
  {
    "Postal_Code": 7834,
    "Place_Name": "Téseny",
    "State": "Baranya",
    "State_Abbreviation": "BA",
    "Latitude": 45.9399,
    "Longitude": 18.0885
  },
  {
    "Postal_Code": 7836,
    "Place_Name": "Ózdfalu",
    "State": "Baranya",
    "State_Abbreviation": "BA",
    "Latitude": 45.9292,
    "Longitude": 18.0217
  },
  {
    "Postal_Code": 7837,
    "Place_Name": "Hegyszentmárton",
    "State": "Baranya",
    "State_Abbreviation": "BA",
    "Latitude": 45.9039,
    "Longitude": 18.09
  },
  {
    "Postal_Code": 7838,
    "Place_Name": "Vajszló",
    "State": "Baranya",
    "State_Abbreviation": "BA",
    "Latitude": 45.8633,
    "Longitude": 17.9761
  },
  {
    "Postal_Code": 7839,
    "Place_Name": "Zaláta",
    "State": "Baranya",
    "State_Abbreviation": "BA",
    "Latitude": 45.8167,
    "Longitude": 17.8833
  },
  {
    "Postal_Code": 7841,
    "Place_Name": "Baranyahidvég",
    "State": "Baranya",
    "State_Abbreviation": "BA",
    "Latitude": 45.8464,
    "Longitude": 18.0233
  },
  {
    "Postal_Code": 7843,
    "Place_Name": "Tésenfa",
    "State": "Baranya",
    "State_Abbreviation": "BA",
    "Latitude": 45.8131,
    "Longitude": 18.1183
  },
  {
    "Postal_Code": 7846,
    "Place_Name": "Drávacsepely",
    "State": "Baranya",
    "State_Abbreviation": "BA",
    "Latitude": 45.8292,
    "Longitude": 18.1386
  },
  {
    "Postal_Code": 7847,
    "Place_Name": "Ipacsfa",
    "State": "Baranya",
    "State_Abbreviation": "BA",
    "Latitude": 45.8347,
    "Longitude": 18.2033
  },
  {
    "Postal_Code": 7851,
    "Place_Name": "Drávacsehi",
    "State": "Baranya",
    "State_Abbreviation": "BA",
    "Latitude": 45.8128,
    "Longitude": 18.1672
  },
  {
    "Postal_Code": 7853,
    "Place_Name": "Gordisa",
    "State": "Baranya",
    "State_Abbreviation": "BA",
    "Latitude": 45.7964,
    "Longitude": 18.2333
  },
  {
    "Postal_Code": 7854,
    "Place_Name": "Matty",
    "State": "Baranya",
    "State_Abbreviation": "BA",
    "Latitude": 45.7981,
    "Longitude": 18.2661
  },
  {
    "Postal_Code": 7900,
    "Place_Name": "Szigetvár",
    "State": "Baranya",
    "State_Abbreviation": "BA",
    "Latitude": 46.05,
    "Longitude": 17.8
  },
  {
    "Postal_Code": 7901,
    "Place_Name": "Csert?",
    "State": "Baranya",
    "State_Abbreviation": "BA",
    "Latitude": 46.1,
    "Longitude": 17.8167
  },
  {
    "Postal_Code": 7912,
    "Place_Name": "Nagyváty",
    "State": "Baranya",
    "State_Abbreviation": "BA",
    "Latitude": 46.0667,
    "Longitude": 17.9333
  },
  {
    "Postal_Code": 7913,
    "Place_Name": "Szentdénes",
    "State": "Baranya",
    "State_Abbreviation": "BA",
    "Latitude": 46,
    "Longitude": 17.9333
  },
  {
    "Postal_Code": 7914,
    "Place_Name": "Katádfa",
    "State": "Baranya",
    "State_Abbreviation": "BA",
    "Latitude": 46,
    "Longitude": 17.8667
  },
  {
    "Postal_Code": 7915,
    "Place_Name": "Szentegát",
    "State": "Baranya",
    "State_Abbreviation": "BA",
    "Latitude": 45.9667,
    "Longitude": 17.8333
  },
  {
    "Postal_Code": 7921,
    "Place_Name": "Somogyhatvan",
    "State": "Baranya",
    "State_Abbreviation": "BA",
    "Latitude": 46.1167,
    "Longitude": 17.7167
  },
  {
    "Postal_Code": 7922,
    "Place_Name": "Basal",
    "State": "Baranya",
    "State_Abbreviation": "BA",
    "Latitude": 46.0667,
    "Longitude": 17.7833
  },
  {
    "Postal_Code": 7925,
    "Place_Name": "Somogyhárságy",
    "State": "Baranya",
    "State_Abbreviation": "BA",
    "Latitude": 46.1667,
    "Longitude": 17.7833
  },
  {
    "Postal_Code": 7926,
    "Place_Name": "Vásárosbéc",
    "State": "Baranya",
    "State_Abbreviation": "BA",
    "Latitude": 46.1833,
    "Longitude": 17.7333
  },
  {
    "Postal_Code": 7932,
    "Place_Name": "Almáskeresztúr",
    "State": "Baranya",
    "State_Abbreviation": "BA",
    "Latitude": 46.1167,
    "Longitude": 17.9
  },
  {
    "Postal_Code": 7934,
    "Place_Name": "Almamellék",
    "State": "Baranya",
    "State_Abbreviation": "BA",
    "Latitude": 46.15,
    "Longitude": 17.8833
  },
  {
    "Postal_Code": 7935,
    "Place_Name": "Ibafa",
    "State": "Baranya",
    "State_Abbreviation": "BA",
    "Latitude": 46.15,
    "Longitude": 17.9167
  },
  {
    "Postal_Code": 7936,
    "Place_Name": "Szentlászló",
    "State": "Baranya",
    "State_Abbreviation": "BA",
    "Latitude": 46.15,
    "Longitude": 17.8333
  },
  {
    "Postal_Code": 7937,
    "Place_Name": "Boldogasszonyfa",
    "State": "Baranya",
    "State_Abbreviation": "BA",
    "Latitude": 46.1833,
    "Longitude": 17.8333
  },
  {
    "Postal_Code": 7940,
    "Place_Name": "Szentl?rinc",
    "State": "Baranya",
    "State_Abbreviation": "BA",
    "Latitude": 46.05,
    "Longitude": 17.9833
  },
  {
    "Postal_Code": 7951,
    "Place_Name": "Velény",
    "State": "Baranya",
    "State_Abbreviation": "BA",
    "Latitude": 45.9803,
    "Longitude": 18.0533
  },
  {
    "Postal_Code": 7953,
    "Place_Name": "Királyegyháza",
    "State": "Baranya",
    "State_Abbreviation": "BA",
    "Latitude": 46,
    "Longitude": 17.9667
  },
  {
    "Postal_Code": 7954,
    "Place_Name": "Magyarmecske",
    "State": "Baranya",
    "State_Abbreviation": "BA",
    "Latitude": 45.95,
    "Longitude": 17.9667
  },
  {
    "Postal_Code": 7957,
    "Place_Name": "Okorág",
    "State": "Baranya",
    "State_Abbreviation": "BA",
    "Latitude": 45.9167,
    "Longitude": 17.8833
  },
  {
    "Postal_Code": 7958,
    "Place_Name": "Kákics",
    "State": "Baranya",
    "State_Abbreviation": "BA",
    "Latitude": 45.9025,
    "Longitude": 17.8528
  },
  {
    "Postal_Code": 7960,
    "Place_Name": "Marócsa",
    "State": "Baranya",
    "State_Abbreviation": "BA",
    "Latitude": 45.9167,
    "Longitude": 17.8167
  },
  {
    "Postal_Code": 7964,
    "Place_Name": "Csányoszró",
    "State": "Baranya",
    "State_Abbreviation": "BA",
    "Latitude": 45.8819,
    "Longitude": 17.9019
  },
  {
    "Postal_Code": 7966,
    "Place_Name": "Bogdása",
    "State": "Baranya",
    "State_Abbreviation": "BA",
    "Latitude": 45.8833,
    "Longitude": 17.8
  },
  {
    "Postal_Code": 7967,
    "Place_Name": "Drávafok",
    "State": "Baranya",
    "State_Abbreviation": "BA",
    "Latitude": 45.8864,
    "Longitude": 17.76
  },
  {
    "Postal_Code": 7968,
    "Place_Name": "Fels?szentmárton",
    "State": "Baranya",
    "State_Abbreviation": "BA",
    "Latitude": 45.8522,
    "Longitude": 17.7
  },
  {
    "Postal_Code": 7971,
    "Place_Name": "Hobol",
    "State": "Baranya",
    "State_Abbreviation": "BA",
    "Latitude": 46.0167,
    "Longitude": 17.7667
  },
  {
    "Postal_Code": 7972,
    "Place_Name": "Gyöngyösmellék",
    "State": "Baranya",
    "State_Abbreviation": "BA",
    "Latitude": 45.9833,
    "Longitude": 17.7
  },
  {
    "Postal_Code": 7973,
    "Place_Name": "Teklafalu",
    "State": "Baranya",
    "State_Abbreviation": "BA",
    "Latitude": 45.95,
    "Longitude": 17.7333
  },
  {
    "Postal_Code": 7975,
    "Place_Name": "Kétújfalu",
    "State": "Baranya",
    "State_Abbreviation": "BA",
    "Latitude": 45.9669,
    "Longitude": 17.705
  },
  {
    "Postal_Code": 7976,
    "Place_Name": "Zádor",
    "State": "Baranya",
    "State_Abbreviation": "BA",
    "Latitude": 45.9667,
    "Longitude": 17.6653
  },
  {
    "Postal_Code": 7981,
    "Place_Name": "Kistamási",
    "State": "Baranya",
    "State_Abbreviation": "BA",
    "Latitude": 46.0167,
    "Longitude": 17.7333
  },
  {
    "Postal_Code": 7985,
    "Place_Name": "Nagydobsza",
    "State": "Baranya",
    "State_Abbreviation": "BA",
    "Latitude": 46.0333,
    "Longitude": 17.6667
  },
  {
    "Postal_Code": 5500,
    "Place_Name": "Gyomaendr?d",
    "State": "Békés",
    "State_Abbreviation": "BE",
    "Latitude": 46.9333,
    "Longitude": 20.8333
  },
  {
    "Postal_Code": 5501,
    "Place_Name": "Gyomaendr?d",
    "State": "Békés",
    "State_Abbreviation": "BE",
    "Latitude": 46.9333,
    "Longitude": 20.8333
  },
  {
    "Postal_Code": 5502,
    "Place_Name": "Gyomaendr?d",
    "State": "Békés",
    "State_Abbreviation": "BE",
    "Latitude": 46.9333,
    "Longitude": 20.8333
  },
  {
    "Postal_Code": 5510,
    "Place_Name": "Dévaványa",
    "State": "Békés",
    "State_Abbreviation": "BE",
    "Latitude": 47.0333,
    "Longitude": 20.9667
  },
  {
    "Postal_Code": 5515,
    "Place_Name": "Ecsegfalva",
    "State": "Békés",
    "State_Abbreviation": "BE",
    "Latitude": 47.15,
    "Longitude": 20.9167
  },
  {
    "Postal_Code": 5516,
    "Place_Name": "Körösladány",
    "State": "Békés",
    "State_Abbreviation": "BE",
    "Latitude": 46.9667,
    "Longitude": 21.0833
  },
  {
    "Postal_Code": 5520,
    "Place_Name": "Szeghalom",
    "State": "Békés",
    "State_Abbreviation": "BE",
    "Latitude": 47.0333,
    "Longitude": 21.1667
  },
  {
    "Postal_Code": 5521,
    "Place_Name": "Szeghalom",
    "State": "Békés",
    "State_Abbreviation": "BE",
    "Latitude": 47.0333,
    "Longitude": 21.1667
  },
  {
    "Postal_Code": 5525,
    "Place_Name": "Füzesgyarmat",
    "State": "Békés",
    "State_Abbreviation": "BE",
    "Latitude": 47.1,
    "Longitude": 21.2167
  },
  {
    "Postal_Code": 5526,
    "Place_Name": "Kertészsziget",
    "State": "Békés",
    "State_Abbreviation": "BE",
    "Latitude": 47.15,
    "Longitude": 21.0667
  },
  {
    "Postal_Code": 5527,
    "Place_Name": "Bucsa",
    "State": "Békés",
    "State_Abbreviation": "BE",
    "Latitude": 47.2,
    "Longitude": 21
  },
  {
    "Postal_Code": 5530,
    "Place_Name": "Vészt?",
    "State": "Békés",
    "State_Abbreviation": "BE",
    "Latitude": 46.9167,
    "Longitude": 21.2667
  },
  {
    "Postal_Code": 5534,
    "Place_Name": "Okány",
    "State": "Békés",
    "State_Abbreviation": "BE",
    "Latitude": 46.9,
    "Longitude": 21.35
  },
  {
    "Postal_Code": 5536,
    "Place_Name": "Körösújfalu",
    "State": "Békés",
    "State_Abbreviation": "BE",
    "Latitude": 46.9667,
    "Longitude": 21.4
  },
  {
    "Postal_Code": 5537,
    "Place_Name": "Zsadány",
    "State": "Békés",
    "State_Abbreviation": "BE",
    "Latitude": 46.9167,
    "Longitude": 21.5
  },
  {
    "Postal_Code": 5538,
    "Place_Name": "Biharugra",
    "State": "Békés",
    "State_Abbreviation": "BE",
    "Latitude": 46.9667,
    "Longitude": 21.6
  },
  {
    "Postal_Code": 5539,
    "Place_Name": "Körösnagyharsány",
    "State": "Békés",
    "State_Abbreviation": "BE",
    "Latitude": 47,
    "Longitude": 21.65
  },
  {
    "Postal_Code": 5540,
    "Place_Name": "Szarvas",
    "State": "Békés",
    "State_Abbreviation": "BE",
    "Latitude": 46.8667,
    "Longitude": 20.55
  },
  {
    "Postal_Code": 5541,
    "Place_Name": "Szarvas",
    "State": "Békés",
    "State_Abbreviation": "BE",
    "Latitude": 46.8667,
    "Longitude": 20.55
  },
  {
    "Postal_Code": 5551,
    "Place_Name": "Csabacs?d",
    "State": "Békés",
    "State_Abbreviation": "BE",
    "Latitude": 46.8333,
    "Longitude": 20.65
  },
  {
    "Postal_Code": 5552,
    "Place_Name": "Kardos",
    "State": "Békés",
    "State_Abbreviation": "BE",
    "Latitude": 46.8167,
    "Longitude": 20.7708
  },
  {
    "Postal_Code": 5553,
    "Place_Name": "Kondoros",
    "State": "Békés",
    "State_Abbreviation": "BE",
    "Latitude": 46.7667,
    "Longitude": 20.8
  },
  {
    "Postal_Code": 5555,
    "Place_Name": "Hunya",
    "State": "Békés",
    "State_Abbreviation": "BE",
    "Latitude": 46.8167,
    "Longitude": 20.85
  },
  {
    "Postal_Code": 5556,
    "Place_Name": "Örménykút",
    "State": "Békés",
    "State_Abbreviation": "BE",
    "Latitude": 46.85,
    "Longitude": 20.7833
  },
  {
    "Postal_Code": 5561,
    "Place_Name": "Békésszentandrás",
    "State": "Békés",
    "State_Abbreviation": "BE",
    "Latitude": 46.8667,
    "Longitude": 20.4833
  },
  {
    "Postal_Code": 5600,
    "Place_Name": "Békéscsaba",
    "State": "Békés",
    "State_Abbreviation": "BE",
    "Latitude": 46.6833,
    "Longitude": 21.1
  },
  {
    "Postal_Code": 5601,
    "Place_Name": "Békéscsaba",
    "State": "Békés",
    "State_Abbreviation": "BE",
    "Latitude": 46.6833,
    "Longitude": 21.1
  },
  {
    "Postal_Code": 5602,
    "Place_Name": "Békéscsaba",
    "State": "Békés",
    "State_Abbreviation": "BE",
    "Latitude": 46.6833,
    "Longitude": 21.1
  },
  {
    "Postal_Code": 5603,
    "Place_Name": "Békéscsaba",
    "State": "Békés",
    "State_Abbreviation": "BE",
    "Latitude": 46.6833,
    "Longitude": 21.1
  },
  {
    "Postal_Code": 5604,
    "Place_Name": "Békéscsaba",
    "State": "Békés",
    "State_Abbreviation": "BE",
    "Latitude": 46.6833,
    "Longitude": 21.1
  },
  {
    "Postal_Code": 5605,
    "Place_Name": "Békéscsaba",
    "State": "Békés",
    "State_Abbreviation": "BE",
    "Latitude": 46.6833,
    "Longitude": 21.1
  },
  {
    "Postal_Code": 5609,
    "Place_Name": "Csabaszabadi",
    "State": "Békés",
    "State_Abbreviation": "BE",
    "Latitude": 46.6833,
    "Longitude": 21.0833
  },
  {
    "Postal_Code": 5621,
    "Place_Name": "Csárdaszállás",
    "State": "Békés",
    "State_Abbreviation": "BE",
    "Latitude": 46.8667,
    "Longitude": 20.9333
  },
  {
    "Postal_Code": 5622,
    "Place_Name": "Köröstarcsa",
    "State": "Békés",
    "State_Abbreviation": "BE",
    "Latitude": 46.8833,
    "Longitude": 21.0333
  },
  {
    "Postal_Code": 5623,
    "Place_Name": "Köröstarcsa",
    "State": "Békés",
    "State_Abbreviation": "BE",
    "Latitude": 46.8833,
    "Longitude": 21.0333
  },
  {
    "Postal_Code": 5624,
    "Place_Name": "Doboz",
    "State": "Békés",
    "State_Abbreviation": "BE",
    "Latitude": 46.7333,
    "Longitude": 21.25
  },
  {
    "Postal_Code": 5630,
    "Place_Name": "Békés",
    "State": "Békés",
    "State_Abbreviation": "BE",
    "Latitude": 46.7667,
    "Longitude": 21.1333
  },
  {
    "Postal_Code": 5631,
    "Place_Name": "Békés",
    "State": "Békés",
    "State_Abbreviation": "BE",
    "Latitude": 46.7667,
    "Longitude": 21.1333
  },
  {
    "Postal_Code": 5641,
    "Place_Name": "Tarhos",
    "State": "Békés",
    "State_Abbreviation": "BE",
    "Latitude": 46.8167,
    "Longitude": 21.2167
  },
  {
    "Postal_Code": 5643,
    "Place_Name": "Bélmegyer",
    "State": "Békés",
    "State_Abbreviation": "BE",
    "Latitude": 46.8667,
    "Longitude": 21.1833
  },
  {
    "Postal_Code": 5650,
    "Place_Name": "Mez?berény",
    "State": "Békés",
    "State_Abbreviation": "BE",
    "Latitude": 46.8167,
    "Longitude": 21.0333
  },
  {
    "Postal_Code": 5661,
    "Place_Name": "Újkígyós",
    "State": "Békés",
    "State_Abbreviation": "BE",
    "Latitude": 46.5833,
    "Longitude": 21.0333
  },
  {
    "Postal_Code": 5662,
    "Place_Name": "Csanádapáca",
    "State": "Békés",
    "State_Abbreviation": "BE",
    "Latitude": 46.55,
    "Longitude": 20.8833
  },
  {
    "Postal_Code": 5663,
    "Place_Name": "Medgyesbodzás",
    "State": "Békés",
    "State_Abbreviation": "BE",
    "Latitude": 46.5167,
    "Longitude": 20.9667
  },
  {
    "Postal_Code": 5664,
    "Place_Name": "Medgyesbodzás",
    "State": "Békés",
    "State_Abbreviation": "BE",
    "Latitude": 46.5167,
    "Longitude": 20.9667
  },
  {
    "Postal_Code": 5665,
    "Place_Name": "Pusztaottlaka",
    "State": "Békés",
    "State_Abbreviation": "BE",
    "Latitude": 46.55,
    "Longitude": 20.9833
  },
  {
    "Postal_Code": 5666,
    "Place_Name": "Medgyesegyháza",
    "State": "Békés",
    "State_Abbreviation": "BE",
    "Latitude": 46.5,
    "Longitude": 21.0333
  },
  {
    "Postal_Code": 5667,
    "Place_Name": "Magyarbánhegyes",
    "State": "Békés",
    "State_Abbreviation": "BE",
    "Latitude": 46.45,
    "Longitude": 20.9667
  },
  {
    "Postal_Code": 5668,
    "Place_Name": "Nagybánhegyes",
    "State": "Békés",
    "State_Abbreviation": "BE",
    "Latitude": 46.4667,
    "Longitude": 20.9
  },
  {
    "Postal_Code": 5671,
    "Place_Name": "Nagybánhegyes",
    "State": "Békés",
    "State_Abbreviation": "BE",
    "Latitude": 46.4667,
    "Longitude": 20.9
  },
  {
    "Postal_Code": 5672,
    "Place_Name": "Murony",
    "State": "Békés",
    "State_Abbreviation": "BE",
    "Latitude": 46.7667,
    "Longitude": 21.05
  },
  {
    "Postal_Code": 5673,
    "Place_Name": "Kamut",
    "State": "Békés",
    "State_Abbreviation": "BE",
    "Latitude": 46.7667,
    "Longitude": 20.9833
  },
  {
    "Postal_Code": 5674,
    "Place_Name": "Kétsoprony",
    "State": "Békés",
    "State_Abbreviation": "BE",
    "Latitude": 46.7167,
    "Longitude": 20.8667
  },
  {
    "Postal_Code": 5675,
    "Place_Name": "Telekgerendás",
    "State": "Békés",
    "State_Abbreviation": "BE",
    "Latitude": 46.65,
    "Longitude": 20.9667
  },
  {
    "Postal_Code": 5700,
    "Place_Name": "Gyula",
    "State": "Békés",
    "State_Abbreviation": "BE",
    "Latitude": 46.6474,
    "Longitude": 21.2773
  },
  {
    "Postal_Code": 5701,
    "Place_Name": "Gyula",
    "State": "Békés",
    "State_Abbreviation": "BE",
    "Latitude": 46.65,
    "Longitude": 21.2833
  },
  {
    "Postal_Code": 5702,
    "Place_Name": "Gyula",
    "State": "Békés",
    "State_Abbreviation": "BE",
    "Latitude": 46.65,
    "Longitude": 21.2833
  },
  {
    "Postal_Code": 5703,
    "Place_Name": "Gyula",
    "State": "Békés",
    "State_Abbreviation": "BE",
    "Latitude": 46.65,
    "Longitude": 21.2833
  },
  {
    "Postal_Code": 5711,
    "Place_Name": "Gyula",
    "State": "Békés",
    "State_Abbreviation": "BE",
    "Latitude": 46.65,
    "Longitude": 21.2833
  },
  {
    "Postal_Code": 5712,
    "Place_Name": "Szabadkígyós",
    "State": "Békés",
    "State_Abbreviation": "BE",
    "Latitude": 46.6167,
    "Longitude": 21.1
  },
  {
    "Postal_Code": 5720,
    "Place_Name": "Sarkad",
    "State": "Békés",
    "State_Abbreviation": "BE",
    "Latitude": 46.75,
    "Longitude": 21.3833
  },
  {
    "Postal_Code": 5721,
    "Place_Name": "Sarkad",
    "State": "Békés",
    "State_Abbreviation": "BE",
    "Latitude": 46.75,
    "Longitude": 21.3833
  },
  {
    "Postal_Code": 5722,
    "Place_Name": "Sarkad",
    "State": "Békés",
    "State_Abbreviation": "BE",
    "Latitude": 46.75,
    "Longitude": 21.3833
  },
  {
    "Postal_Code": 5725,
    "Place_Name": "Kötegyán",
    "State": "Békés",
    "State_Abbreviation": "BE",
    "Latitude": 46.7333,
    "Longitude": 21.4833
  },
  {
    "Postal_Code": 5726,
    "Place_Name": "Méhkerék",
    "State": "Békés",
    "State_Abbreviation": "BE",
    "Latitude": 46.7833,
    "Longitude": 21.45
  },
  {
    "Postal_Code": 5727,
    "Place_Name": "Újszalonta",
    "State": "Békés",
    "State_Abbreviation": "BE",
    "Latitude": 46.8,
    "Longitude": 21.5
  },
  {
    "Postal_Code": 5731,
    "Place_Name": "Sarkadkeresztúr",
    "State": "Békés",
    "State_Abbreviation": "BE",
    "Latitude": 46.8,
    "Longitude": 21.3833
  },
  {
    "Postal_Code": 5732,
    "Place_Name": "Mez?gyán",
    "State": "Békés",
    "State_Abbreviation": "BE",
    "Latitude": 46.8667,
    "Longitude": 21.5333
  },
  {
    "Postal_Code": 5734,
    "Place_Name": "Geszt",
    "State": "Békés",
    "State_Abbreviation": "BE",
    "Latitude": 46.8833,
    "Longitude": 21.5833
  },
  {
    "Postal_Code": 5741,
    "Place_Name": "Kétegyháza",
    "State": "Békés",
    "State_Abbreviation": "BE",
    "Latitude": 46.5333,
    "Longitude": 21.1833
  },
  {
    "Postal_Code": 5742,
    "Place_Name": "Elek",
    "State": "Békés",
    "State_Abbreviation": "BE",
    "Latitude": 46.5333,
    "Longitude": 21.25
  },
  {
    "Postal_Code": 5743,
    "Place_Name": "L?kösháza",
    "State": "Békés",
    "State_Abbreviation": "BE",
    "Latitude": 46.4333,
    "Longitude": 21.2333
  },
  {
    "Postal_Code": 5744,
    "Place_Name": "Kevermes",
    "State": "Békés",
    "State_Abbreviation": "BE",
    "Latitude": 46.4167,
    "Longitude": 21.1833
  },
  {
    "Postal_Code": 5745,
    "Place_Name": "Dombiratos",
    "State": "Békés",
    "State_Abbreviation": "BE",
    "Latitude": 46.4167,
    "Longitude": 21.1167
  },
  {
    "Postal_Code": 5746,
    "Place_Name": "Kunágota",
    "State": "Békés",
    "State_Abbreviation": "BE",
    "Latitude": 46.4333,
    "Longitude": 21.05
  },
  {
    "Postal_Code": 5747,
    "Place_Name": "Almáskamarás",
    "State": "Békés",
    "State_Abbreviation": "BE",
    "Latitude": 46.4667,
    "Longitude": 21.1
  },
  {
    "Postal_Code": 5751,
    "Place_Name": "Nagykamarás",
    "State": "Békés",
    "State_Abbreviation": "BE",
    "Latitude": 46.4667,
    "Longitude": 21.1167
  },
  {
    "Postal_Code": 5752,
    "Place_Name": "Nagykamarás",
    "State": "Békés",
    "State_Abbreviation": "BE",
    "Latitude": 46.4667,
    "Longitude": 21.1167
  },
  {
    "Postal_Code": 5800,
    "Place_Name": "Mez?kovácsháza",
    "State": "Békés",
    "State_Abbreviation": "BE",
    "Latitude": 46.4,
    "Longitude": 20.9167
  },
  {
    "Postal_Code": 5801,
    "Place_Name": "Mez?kovácsháza",
    "State": "Békés",
    "State_Abbreviation": "BE",
    "Latitude": 46.4,
    "Longitude": 20.9167
  },
  {
    "Postal_Code": 5802,
    "Place_Name": "Mez?kovácsháza",
    "State": "Békés",
    "State_Abbreviation": "BE",
    "Latitude": 46.4,
    "Longitude": 20.9167
  },
  {
    "Postal_Code": 5811,
    "Place_Name": "Végegyháza",
    "State": "Békés",
    "State_Abbreviation": "BE",
    "Latitude": 46.3833,
    "Longitude": 20.8667
  },
  {
    "Postal_Code": 5820,
    "Place_Name": "Mez?hegyes",
    "State": "Békés",
    "State_Abbreviation": "BE",
    "Latitude": 46.3167,
    "Longitude": 20.8167
  },
  {
    "Postal_Code": 5830,
    "Place_Name": "Battonya",
    "State": "Békés",
    "State_Abbreviation": "BE",
    "Latitude": 46.2833,
    "Longitude": 21.0167
  },
  {
    "Postal_Code": 5836,
    "Place_Name": "Dombegyház",
    "State": "Békés",
    "State_Abbreviation": "BE",
    "Latitude": 46.3333,
    "Longitude": 21.1333
  },
  {
    "Postal_Code": 5837,
    "Place_Name": "Kisdombegyház",
    "State": "Békés",
    "State_Abbreviation": "BE",
    "Latitude": 46.3667,
    "Longitude": 21.1
  },
  {
    "Postal_Code": 5838,
    "Place_Name": "Magyardombegyház",
    "State": "Békés",
    "State_Abbreviation": "BE",
    "Latitude": 46.3833,
    "Longitude": 21.0667
  },
  {
    "Postal_Code": 5900,
    "Place_Name": "Orosháza",
    "State": "Békés",
    "State_Abbreviation": "BE",
    "Latitude": 46.5667,
    "Longitude": 20.6667
  },
  {
    "Postal_Code": 5901,
    "Place_Name": "Orosháza",
    "State": "Békés",
    "State_Abbreviation": "BE",
    "Latitude": 46.5667,
    "Longitude": 20.6667
  },
  {
    "Postal_Code": 5902,
    "Place_Name": "Orosháza",
    "State": "Békés",
    "State_Abbreviation": "BE",
    "Latitude": 46.5667,
    "Longitude": 20.6667
  },
  {
    "Postal_Code": 5903,
    "Place_Name": "Orosháza",
    "State": "Békés",
    "State_Abbreviation": "BE",
    "Latitude": 46.5667,
    "Longitude": 20.6667
  },
  {
    "Postal_Code": 5904,
    "Place_Name": "Orosháza",
    "State": "Békés",
    "State_Abbreviation": "BE",
    "Latitude": 46.5667,
    "Longitude": 20.6667
  },
  {
    "Postal_Code": 5905,
    "Place_Name": "Orosháza",
    "State": "Békés",
    "State_Abbreviation": "BE",
    "Latitude": 46.5667,
    "Longitude": 20.6667
  },
  {
    "Postal_Code": 5919,
    "Place_Name": "Pusztaföldvár",
    "State": "Békés",
    "State_Abbreviation": "BE",
    "Latitude": 46.5333,
    "Longitude": 20.8
  },
  {
    "Postal_Code": 5920,
    "Place_Name": "Csorvás",
    "State": "Békés",
    "State_Abbreviation": "BE",
    "Latitude": 46.6333,
    "Longitude": 20.8333
  },
  {
    "Postal_Code": 5925,
    "Place_Name": "Gerendás",
    "State": "Békés",
    "State_Abbreviation": "BE",
    "Latitude": 46.6,
    "Longitude": 20.8667
  },
  {
    "Postal_Code": 5931,
    "Place_Name": "Nagyszénás",
    "State": "Békés",
    "State_Abbreviation": "BE",
    "Latitude": 46.6833,
    "Longitude": 20.6667
  },
  {
    "Postal_Code": 5932,
    "Place_Name": "Gádoros",
    "State": "Békés",
    "State_Abbreviation": "BE",
    "Latitude": 46.6667,
    "Longitude": 20.6
  },
  {
    "Postal_Code": 5940,
    "Place_Name": "Tótkomlós",
    "State": "Békés",
    "State_Abbreviation": "BE",
    "Latitude": 46.4167,
    "Longitude": 20.7333
  },
  {
    "Postal_Code": 5945,
    "Place_Name": "Kardoskút",
    "State": "Békés",
    "State_Abbreviation": "BE",
    "Latitude": 46.4833,
    "Longitude": 20.6667
  },
  {
    "Postal_Code": 5946,
    "Place_Name": "Békéssámson",
    "State": "Békés",
    "State_Abbreviation": "BE",
    "Latitude": 46.4167,
    "Longitude": 20.6333
  },
  {
    "Postal_Code": 5948,
    "Place_Name": "Kaszaper",
    "State": "Békés",
    "State_Abbreviation": "BE",
    "Latitude": 46.4667,
    "Longitude": 20.8333
  },
  {
    "Postal_Code": 6000,
    "Place_Name": "Kecskemét",
    "State": "Bács-Kiskun",
    "State_Abbreviation": "BK",
    "Latitude": 46.9,
    "Longitude": 19.7833
  },
  {
    "Postal_Code": 6001,
    "Place_Name": "Kecskemét",
    "State": "Bács-Kiskun",
    "State_Abbreviation": "BK",
    "Latitude": 46.9,
    "Longitude": 19.7833
  },
  {
    "Postal_Code": 6002,
    "Place_Name": "Kecskemét",
    "State": "Bács-Kiskun",
    "State_Abbreviation": "BK",
    "Latitude": 46.9,
    "Longitude": 19.7833
  },
  {
    "Postal_Code": 6003,
    "Place_Name": "Kecskemét",
    "State": "Bács-Kiskun",
    "State_Abbreviation": "BK",
    "Latitude": 46.9,
    "Longitude": 19.7833
  },
  {
    "Postal_Code": 6004,
    "Place_Name": "Kecskemét",
    "State": "Bács-Kiskun",
    "State_Abbreviation": "BK",
    "Latitude": 46.9,
    "Longitude": 19.7833
  },
  {
    "Postal_Code": 6005,
    "Place_Name": "Kecskemét",
    "State": "Bács-Kiskun",
    "State_Abbreviation": "BK",
    "Latitude": 46.9,
    "Longitude": 19.7833
  },
  {
    "Postal_Code": 6006,
    "Place_Name": "Kecskemét",
    "State": "Bács-Kiskun",
    "State_Abbreviation": "BK",
    "Latitude": 46.9,
    "Longitude": 19.7833
  },
  {
    "Postal_Code": 6007,
    "Place_Name": "Kecskemét",
    "State": "Bács-Kiskun",
    "State_Abbreviation": "BK",
    "Latitude": 46.9,
    "Longitude": 19.7833
  },
  {
    "Postal_Code": 6010,
    "Place_Name": "Kecskemét",
    "State": "Bács-Kiskun",
    "State_Abbreviation": "BK",
    "Latitude": 46.9,
    "Longitude": 19.7833
  },
  {
    "Postal_Code": 6031,
    "Place_Name": "Szentkirály",
    "State": "Bács-Kiskun",
    "State_Abbreviation": "BK",
    "Latitude": 46.9167,
    "Longitude": 19.9333
  },
  {
    "Postal_Code": 6032,
    "Place_Name": "Nyárl?rinc",
    "State": "Bács-Kiskun",
    "State_Abbreviation": "BK",
    "Latitude": 46.8622,
    "Longitude": 19.8733
  },
  {
    "Postal_Code": 6033,
    "Place_Name": "Városföld",
    "State": "Bács-Kiskun",
    "State_Abbreviation": "BK",
    "Latitude": 46.8167,
    "Longitude": 19.7667
  },
  {
    "Postal_Code": 6034,
    "Place_Name": "Helvécia",
    "State": "Bács-Kiskun",
    "State_Abbreviation": "BK",
    "Latitude": 46.8333,
    "Longitude": 19.6167
  },
  {
    "Postal_Code": 6035,
    "Place_Name": "Ballószög",
    "State": "Bács-Kiskun",
    "State_Abbreviation": "BK",
    "Latitude": 46.8667,
    "Longitude": 19.5833
  },
  {
    "Postal_Code": 6041,
    "Place_Name": "Kerekegyháza",
    "State": "Bács-Kiskun",
    "State_Abbreviation": "BK",
    "Latitude": 46.9372,
    "Longitude": 19.4781
  },
  {
    "Postal_Code": 6042,
    "Place_Name": "Fülöpháza",
    "State": "Bács-Kiskun",
    "State_Abbreviation": "BK",
    "Latitude": 46.8833,
    "Longitude": 19.4167
  },
  {
    "Postal_Code": 6043,
    "Place_Name": "Kunbaracs",
    "State": "Bács-Kiskun",
    "State_Abbreviation": "BK",
    "Latitude": 46.9833,
    "Longitude": 19.4167
  },
  {
    "Postal_Code": 6044,
    "Place_Name": "Kunbaracs",
    "State": "Bács-Kiskun",
    "State_Abbreviation": "BK",
    "Latitude": 46.9833,
    "Longitude": 19.4167
  },
  {
    "Postal_Code": 6045,
    "Place_Name": "Ladánybene",
    "State": "Bács-Kiskun",
    "State_Abbreviation": "BK",
    "Latitude": 47.0333,
    "Longitude": 19.45
  },
  {
    "Postal_Code": 6050,
    "Place_Name": "Lajosmizse",
    "State": "Bács-Kiskun",
    "State_Abbreviation": "BK",
    "Latitude": 47.0167,
    "Longitude": 19.55
  },
  {
    "Postal_Code": 6055,
    "Place_Name": "Fels?lajos",
    "State": "Bács-Kiskun",
    "State_Abbreviation": "BK",
    "Latitude": 47.0667,
    "Longitude": 19.5167
  },
  {
    "Postal_Code": 6060,
    "Place_Name": "Tiszakécske",
    "State": "Bács-Kiskun",
    "State_Abbreviation": "BK",
    "Latitude": 46.9333,
    "Longitude": 20.1
  },
  {
    "Postal_Code": 6061,
    "Place_Name": "Tiszakécske",
    "State": "Bács-Kiskun",
    "State_Abbreviation": "BK",
    "Latitude": 46.9333,
    "Longitude": 20.1
  },
  {
    "Postal_Code": 6062,
    "Place_Name": "Tiszakécske",
    "State": "Bács-Kiskun",
    "State_Abbreviation": "BK",
    "Latitude": 46.9333,
    "Longitude": 20.1
  },
  {
    "Postal_Code": 6063,
    "Place_Name": "Tiszakécske",
    "State": "Bács-Kiskun",
    "State_Abbreviation": "BK",
    "Latitude": 46.9333,
    "Longitude": 20.1
  },
  {
    "Postal_Code": 6065,
    "Place_Name": "Lakitelek",
    "State": "Bács-Kiskun",
    "State_Abbreviation": "BK",
    "Latitude": 46.8761,
    "Longitude": 19.9889
  },
  {
    "Postal_Code": 6066,
    "Place_Name": "Tiszaalpár",
    "State": "Bács-Kiskun",
    "State_Abbreviation": "BK",
    "Latitude": 46.8217,
    "Longitude": 19.9842
  },
  {
    "Postal_Code": 6067,
    "Place_Name": "Tiszaalpár",
    "State": "Bács-Kiskun",
    "State_Abbreviation": "BK",
    "Latitude": 46.8217,
    "Longitude": 19.9842
  },
  {
    "Postal_Code": 6070,
    "Place_Name": "Izsák",
    "State": "Bács-Kiskun",
    "State_Abbreviation": "BK",
    "Latitude": 46.8014,
    "Longitude": 19.3547
  },
  {
    "Postal_Code": 6075,
    "Place_Name": "Páhi",
    "State": "Bács-Kiskun",
    "State_Abbreviation": "BK",
    "Latitude": 46.7167,
    "Longitude": 19.4
  },
  {
    "Postal_Code": 6076,
    "Place_Name": "Ágasegyháza",
    "State": "Bács-Kiskun",
    "State_Abbreviation": "BK",
    "Latitude": 46.8333,
    "Longitude": 19.45
  },
  {
    "Postal_Code": 6077,
    "Place_Name": "Orgovány",
    "State": "Bács-Kiskun",
    "State_Abbreviation": "BK",
    "Latitude": 46.7486,
    "Longitude": 19.4736
  },
  {
    "Postal_Code": 6078,
    "Place_Name": "Jakabszállás",
    "State": "Bács-Kiskun",
    "State_Abbreviation": "BK",
    "Latitude": 46.7603,
    "Longitude": 19.6072
  },
  {
    "Postal_Code": 6080,
    "Place_Name": "Szabadszállás",
    "State": "Bács-Kiskun",
    "State_Abbreviation": "BK",
    "Latitude": 46.8728,
    "Longitude": 19.2242
  },
  {
    "Postal_Code": 6085,
    "Place_Name": "Fülöpszállás",
    "State": "Bács-Kiskun",
    "State_Abbreviation": "BK",
    "Latitude": 46.8178,
    "Longitude": 19.2386
  },
  {
    "Postal_Code": 6086,
    "Place_Name": "Szalkszentmárton",
    "State": "Bács-Kiskun",
    "State_Abbreviation": "BK",
    "Latitude": 46.9742,
    "Longitude": 19.02
  },
  {
    "Postal_Code": 6087,
    "Place_Name": "Dunavecse",
    "State": "Bács-Kiskun",
    "State_Abbreviation": "BK",
    "Latitude": 46.9167,
    "Longitude": 18.9833
  },
  {
    "Postal_Code": 6088,
    "Place_Name": "Apostag",
    "State": "Bács-Kiskun",
    "State_Abbreviation": "BK",
    "Latitude": 46.8833,
    "Longitude": 18.95
  },
  {
    "Postal_Code": 6090,
    "Place_Name": "Kunszentmiklós",
    "State": "Bács-Kiskun",
    "State_Abbreviation": "BK",
    "Latitude": 47.0333,
    "Longitude": 19.1333
  },
  {
    "Postal_Code": 6093,
    "Place_Name": "Kunszentmiklós",
    "State": "Bács-Kiskun",
    "State_Abbreviation": "BK",
    "Latitude": 47.0333,
    "Longitude": 19.1333
  },
  {
    "Postal_Code": 6096,
    "Place_Name": "Kunpeszér",
    "State": "Bács-Kiskun",
    "State_Abbreviation": "BK",
    "Latitude": 47.0667,
    "Longitude": 19.2833
  },
  {
    "Postal_Code": 6097,
    "Place_Name": "Kunadacs",
    "State": "Bács-Kiskun",
    "State_Abbreviation": "BK",
    "Latitude": 46.95,
    "Longitude": 19.3167
  },
  {
    "Postal_Code": 6098,
    "Place_Name": "Tass",
    "State": "Bács-Kiskun",
    "State_Abbreviation": "BK",
    "Latitude": 47.0167,
    "Longitude": 19.0333
  },
  {
    "Postal_Code": 6100,
    "Place_Name": "Kiskunfélegyháza",
    "State": "Bács-Kiskun",
    "State_Abbreviation": "BK",
    "Latitude": 46.7136,
    "Longitude": 19.8522
  },
  {
    "Postal_Code": 6101,
    "Place_Name": "Kiskunfélegyháza",
    "State": "Bács-Kiskun",
    "State_Abbreviation": "BK",
    "Latitude": 46.7136,
    "Longitude": 19.8522
  },
  {
    "Postal_Code": 6102,
    "Place_Name": "Kiskunfélegyháza",
    "State": "Bács-Kiskun",
    "State_Abbreviation": "BK",
    "Latitude": 46.7136,
    "Longitude": 19.8522
  },
  {
    "Postal_Code": 6111,
    "Place_Name": "Gátér",
    "State": "Bács-Kiskun",
    "State_Abbreviation": "BK",
    "Latitude": 46.6833,
    "Longitude": 19.9667
  },
  {
    "Postal_Code": 6112,
    "Place_Name": "Pálmonostora",
    "State": "Bács-Kiskun",
    "State_Abbreviation": "BK",
    "Latitude": 46.6278,
    "Longitude": 19.9422
  },
  {
    "Postal_Code": 6113,
    "Place_Name": "Pet?fiszállás",
    "State": "Bács-Kiskun",
    "State_Abbreviation": "BK",
    "Latitude": 46.6167,
    "Longitude": 19.8333
  },
  {
    "Postal_Code": 6114,
    "Place_Name": "Bugacpusztaháza",
    "State": "Bács-Kiskun",
    "State_Abbreviation": "BK",
    "Latitude": 46.6889,
    "Longitude": 19.6794
  },
  {
    "Postal_Code": 6115,
    "Place_Name": "Kunszállás",
    "State": "Bács-Kiskun",
    "State_Abbreviation": "BK",
    "Latitude": 46.7667,
    "Longitude": 19.75
  },
  {
    "Postal_Code": 6116,
    "Place_Name": "Fülöpjakab",
    "State": "Bács-Kiskun",
    "State_Abbreviation": "BK",
    "Latitude": 46.6767,
    "Longitude": 19.8343
  },
  {
    "Postal_Code": 6120,
    "Place_Name": "Kiskunmajsa",
    "State": "Bács-Kiskun",
    "State_Abbreviation": "BK",
    "Latitude": 46.4903,
    "Longitude": 19.74
  },
  {
    "Postal_Code": 6131,
    "Place_Name": "Szank",
    "State": "Bács-Kiskun",
    "State_Abbreviation": "BK",
    "Latitude": 46.5544,
    "Longitude": 19.6722
  },
  {
    "Postal_Code": 6132,
    "Place_Name": "Móricgát",
    "State": "Bács-Kiskun",
    "State_Abbreviation": "BK",
    "Latitude": 46.4915,
    "Longitude": 19.7487
  },
  {
    "Postal_Code": 6133,
    "Place_Name": "Jászszentlászló",
    "State": "Bács-Kiskun",
    "State_Abbreviation": "BK",
    "Latitude": 46.5681,
    "Longitude": 19.7611
  },
  {
    "Postal_Code": 6134,
    "Place_Name": "Kömpöc",
    "State": "Bács-Kiskun",
    "State_Abbreviation": "BK",
    "Latitude": 46.4667,
    "Longitude": 19.8667
  },
  {
    "Postal_Code": 6135,
    "Place_Name": "Csólyospálos",
    "State": "Bács-Kiskun",
    "State_Abbreviation": "BK",
    "Latitude": 46.4183,
    "Longitude": 19.8436
  },
  {
    "Postal_Code": 6136,
    "Place_Name": "Harkakötöny",
    "State": "Bács-Kiskun",
    "State_Abbreviation": "BK",
    "Latitude": 46.45,
    "Longitude": 19.6
  },
  {
    "Postal_Code": 6200,
    "Place_Name": "Kisk?rös",
    "State": "Bács-Kiskun",
    "State_Abbreviation": "BK",
    "Latitude": 46.6206,
    "Longitude": 19.2886
  },
  {
    "Postal_Code": 6201,
    "Place_Name": "Kisk?rös",
    "State": "Bács-Kiskun",
    "State_Abbreviation": "BK",
    "Latitude": 46.6206,
    "Longitude": 19.2886
  },
  {
    "Postal_Code": 6211,
    "Place_Name": "Kaskantyú",
    "State": "Bács-Kiskun",
    "State_Abbreviation": "BK",
    "Latitude": 46.6667,
    "Longitude": 19.4
  },
  {
    "Postal_Code": 6221,
    "Place_Name": "Akasztó",
    "State": "Bács-Kiskun",
    "State_Abbreviation": "BK",
    "Latitude": 46.6917,
    "Longitude": 19.2081
  },
  {
    "Postal_Code": 6222,
    "Place_Name": "Cseng?d",
    "State": "Bács-Kiskun",
    "State_Abbreviation": "BK",
    "Latitude": 46.7167,
    "Longitude": 19.2667
  },
  {
    "Postal_Code": 6223,
    "Place_Name": "Soltszentimre",
    "State": "Bács-Kiskun",
    "State_Abbreviation": "BK",
    "Latitude": 46.7697,
    "Longitude": 19.2831
  },
  {
    "Postal_Code": 6224,
    "Place_Name": "Tabdi",
    "State": "Bács-Kiskun",
    "State_Abbreviation": "BK",
    "Latitude": 46.6833,
    "Longitude": 19.3
  },
  {
    "Postal_Code": 6230,
    "Place_Name": "Soltvadkert",
    "State": "Bács-Kiskun",
    "State_Abbreviation": "BK",
    "Latitude": 46.5781,
    "Longitude": 19.3958
  },
  {
    "Postal_Code": 6235,
    "Place_Name": "Bócsa",
    "State": "Bács-Kiskun",
    "State_Abbreviation": "BK",
    "Latitude": 46.6,
    "Longitude": 19.5
  },
  {
    "Postal_Code": 6236,
    "Place_Name": "Tázlár",
    "State": "Bács-Kiskun",
    "State_Abbreviation": "BK",
    "Latitude": 46.5486,
    "Longitude": 19.5203
  },
  {
    "Postal_Code": 6237,
    "Place_Name": "Kecel",
    "State": "Bács-Kiskun",
    "State_Abbreviation": "BK",
    "Latitude": 46.5253,
    "Longitude": 19.2519
  },
  {
    "Postal_Code": 6238,
    "Place_Name": "Imrehegy",
    "State": "Bács-Kiskun",
    "State_Abbreviation": "BK",
    "Latitude": 46.4833,
    "Longitude": 19.3167
  },
  {
    "Postal_Code": 6239,
    "Place_Name": "Császártöltés",
    "State": "Bács-Kiskun",
    "State_Abbreviation": "BK",
    "Latitude": 46.4219,
    "Longitude": 19.1836
  },
  {
    "Postal_Code": 6300,
    "Place_Name": "Kalocsa",
    "State": "Bács-Kiskun",
    "State_Abbreviation": "BK",
    "Latitude": 46.5339,
    "Longitude": 18.9861
  },
  {
    "Postal_Code": 6301,
    "Place_Name": "Kalocsa",
    "State": "Bács-Kiskun",
    "State_Abbreviation": "BK",
    "Latitude": 46.5264,
    "Longitude": 18.9858
  },
  {
    "Postal_Code": 6311,
    "Place_Name": "Öregcsert?",
    "State": "Bács-Kiskun",
    "State_Abbreviation": "BK",
    "Latitude": 46.5139,
    "Longitude": 19.1117
  },
  {
    "Postal_Code": 6320,
    "Place_Name": "Solt",
    "State": "Bács-Kiskun",
    "State_Abbreviation": "BK",
    "Latitude": 46.7997,
    "Longitude": 19.0161
  },
  {
    "Postal_Code": 6321,
    "Place_Name": "Újsolt",
    "State": "Bács-Kiskun",
    "State_Abbreviation": "BK",
    "Latitude": 46.8667,
    "Longitude": 19.1167
  },
  {
    "Postal_Code": 6323,
    "Place_Name": "Dunaegyháza",
    "State": "Bács-Kiskun",
    "State_Abbreviation": "BK",
    "Latitude": 46.8333,
    "Longitude": 18.95
  },
  {
    "Postal_Code": 6325,
    "Place_Name": "Dunatetétlen",
    "State": "Bács-Kiskun",
    "State_Abbreviation": "BK",
    "Latitude": 46.75,
    "Longitude": 19.1167
  },
  {
    "Postal_Code": 6326,
    "Place_Name": "Harta",
    "State": "Bács-Kiskun",
    "State_Abbreviation": "BK",
    "Latitude": 46.6936,
    "Longitude": 19.0314
  },
  {
    "Postal_Code": 6327,
    "Place_Name": "Harta",
    "State": "Bács-Kiskun",
    "State_Abbreviation": "BK",
    "Latitude": 46.6936,
    "Longitude": 19.0314
  },
  {
    "Postal_Code": 6328,
    "Place_Name": "Dunapataj",
    "State": "Bács-Kiskun",
    "State_Abbreviation": "BK",
    "Latitude": 46.64,
    "Longitude": 19.0022
  },
  {
    "Postal_Code": 6331,
    "Place_Name": "Fokt?",
    "State": "Bács-Kiskun",
    "State_Abbreviation": "BK",
    "Latitude": 46.5167,
    "Longitude": 18.9167
  },
  {
    "Postal_Code": 6332,
    "Place_Name": "Uszód",
    "State": "Bács-Kiskun",
    "State_Abbreviation": "BK",
    "Latitude": 46.5667,
    "Longitude": 18.9167
  },
  {
    "Postal_Code": 6333,
    "Place_Name": "Dunaszentbenedek",
    "State": "Bács-Kiskun",
    "State_Abbreviation": "BK",
    "Latitude": 46.6,
    "Longitude": 18.9
  },
  {
    "Postal_Code": 6334,
    "Place_Name": "Géderlak",
    "State": "Bács-Kiskun",
    "State_Abbreviation": "BK",
    "Latitude": 46.6167,
    "Longitude": 18.9167
  },
  {
    "Postal_Code": 6335,
    "Place_Name": "Ordas",
    "State": "Bács-Kiskun",
    "State_Abbreviation": "BK",
    "Latitude": 46.6333,
    "Longitude": 18.95
  },
  {
    "Postal_Code": 6336,
    "Place_Name": "Szakmár",
    "State": "Bács-Kiskun",
    "State_Abbreviation": "BK",
    "Latitude": 46.5522,
    "Longitude": 19.0742
  },
  {
    "Postal_Code": 6337,
    "Place_Name": "Újtelek",
    "State": "Bács-Kiskun",
    "State_Abbreviation": "BK",
    "Latitude": 46.59,
    "Longitude": 19.0586
  },
  {
    "Postal_Code": 6341,
    "Place_Name": "Homokmégy",
    "State": "Bács-Kiskun",
    "State_Abbreviation": "BK",
    "Latitude": 46.4869,
    "Longitude": 19.0744
  },
  {
    "Postal_Code": 6342,
    "Place_Name": "Drágszél",
    "State": "Bács-Kiskun",
    "State_Abbreviation": "BK",
    "Latitude": 46.4667,
    "Longitude": 19.05
  },
  {
    "Postal_Code": 6343,
    "Place_Name": "Miske",
    "State": "Bács-Kiskun",
    "State_Abbreviation": "BK",
    "Latitude": 46.4417,
    "Longitude": 19.0322
  },
  {
    "Postal_Code": 6344,
    "Place_Name": "Hajós",
    "State": "Bács-Kiskun",
    "State_Abbreviation": "BK",
    "Latitude": 46.3986,
    "Longitude": 19.1206
  },
  {
    "Postal_Code": 6345,
    "Place_Name": "Nemesnádudvar",
    "State": "Bács-Kiskun",
    "State_Abbreviation": "BK",
    "Latitude": 46.3356,
    "Longitude": 19.0531
  },
  {
    "Postal_Code": 6346,
    "Place_Name": "Sükösd",
    "State": "Bács-Kiskun",
    "State_Abbreviation": "BK",
    "Latitude": 46.2833,
    "Longitude": 19
  },
  {
    "Postal_Code": 6347,
    "Place_Name": "Érsekcsanád",
    "State": "Bács-Kiskun",
    "State_Abbreviation": "BK",
    "Latitude": 46.25,
    "Longitude": 18.9833
  },
  {
    "Postal_Code": 6348,
    "Place_Name": "Érsekhalma",
    "State": "Bács-Kiskun",
    "State_Abbreviation": "BK",
    "Latitude": 46.35,
    "Longitude": 19.1167
  },
  {
    "Postal_Code": 6351,
    "Place_Name": "Bátya",
    "State": "Bács-Kiskun",
    "State_Abbreviation": "BK",
    "Latitude": 46.4833,
    "Longitude": 18.95
  },
  {
    "Postal_Code": 6352,
    "Place_Name": "Fajsz",
    "State": "Bács-Kiskun",
    "State_Abbreviation": "BK",
    "Latitude": 46.4167,
    "Longitude": 18.9167
  },
  {
    "Postal_Code": 6353,
    "Place_Name": "Dusnok",
    "State": "Bács-Kiskun",
    "State_Abbreviation": "BK",
    "Latitude": 46.3833,
    "Longitude": 18.9667
  },
  {
    "Postal_Code": 6400,
    "Place_Name": "Kiskunhalas",
    "State": "Bács-Kiskun",
    "State_Abbreviation": "BK",
    "Latitude": 46.4314,
    "Longitude": 19.4875
  },
  {
    "Postal_Code": 6401,
    "Place_Name": "Kiskunhalas",
    "State": "Bács-Kiskun",
    "State_Abbreviation": "BK",
    "Latitude": 46.4314,
    "Longitude": 19.4875
  },
  {
    "Postal_Code": 6402,
    "Place_Name": "Kiskunhalas",
    "State": "Bács-Kiskun",
    "State_Abbreviation": "BK",
    "Latitude": 46.4314,
    "Longitude": 19.4875
  },
  {
    "Postal_Code": 6411,
    "Place_Name": "Zsana",
    "State": "Bács-Kiskun",
    "State_Abbreviation": "BK",
    "Latitude": 46.4167,
    "Longitude": 19.6833
  },
  {
    "Postal_Code": 6412,
    "Place_Name": "Balotaszállás",
    "State": "Bács-Kiskun",
    "State_Abbreviation": "BK",
    "Latitude": 46.35,
    "Longitude": 19.5333
  },
  {
    "Postal_Code": 6413,
    "Place_Name": "Kunfehértó",
    "State": "Bács-Kiskun",
    "State_Abbreviation": "BK",
    "Latitude": 46.35,
    "Longitude": 19.4167
  },
  {
    "Postal_Code": 6414,
    "Place_Name": "Pirtó",
    "State": "Bács-Kiskun",
    "State_Abbreviation": "BK",
    "Latitude": 46.5167,
    "Longitude": 19.4333
  },
  {
    "Postal_Code": 6421,
    "Place_Name": "Kisszállás",
    "State": "Bács-Kiskun",
    "State_Abbreviation": "BK",
    "Latitude": 46.2783,
    "Longitude": 19.4961
  },
  {
    "Postal_Code": 6422,
    "Place_Name": "Tompa",
    "State": "Bács-Kiskun",
    "State_Abbreviation": "BK",
    "Latitude": 46.2178,
    "Longitude": 19.5422
  },
  {
    "Postal_Code": 6423,
    "Place_Name": "Kelebia",
    "State": "Bács-Kiskun",
    "State_Abbreviation": "BK",
    "Latitude": 46.1939,
    "Longitude": 19.6119
  },
  {
    "Postal_Code": 6424,
    "Place_Name": "Csikéria",
    "State": "Bács-Kiskun",
    "State_Abbreviation": "BK",
    "Latitude": 46.1222,
    "Longitude": 19.4789
  },
  {
    "Postal_Code": 6425,
    "Place_Name": "Bácssz?l?s",
    "State": "Bács-Kiskun",
    "State_Abbreviation": "BK",
    "Latitude": 46.15,
    "Longitude": 19.45
  },
  {
    "Postal_Code": 6430,
    "Place_Name": "Bácsalmás",
    "State": "Bács-Kiskun",
    "State_Abbreviation": "BK",
    "Latitude": 46.1253,
    "Longitude": 19.3361
  },
  {
    "Postal_Code": 6435,
    "Place_Name": "Kunbaja",
    "State": "Bács-Kiskun",
    "State_Abbreviation": "BK",
    "Latitude": 46.0836,
    "Longitude": 19.4278
  },
  {
    "Postal_Code": 6440,
    "Place_Name": "Jánoshalma",
    "State": "Bács-Kiskun",
    "State_Abbreviation": "BK",
    "Latitude": 46.2986,
    "Longitude": 19.3258
  },
  {
    "Postal_Code": 6444,
    "Place_Name": "Kéleshalom",
    "State": "Bács-Kiskun",
    "State_Abbreviation": "BK",
    "Latitude": 46.3667,
    "Longitude": 19.25
  },
  {
    "Postal_Code": 6445,
    "Place_Name": "Borota",
    "State": "Bács-Kiskun",
    "State_Abbreviation": "BK",
    "Latitude": 46.2631,
    "Longitude": 19.2253
  },
  {
    "Postal_Code": 6446,
    "Place_Name": "Rém",
    "State": "Bács-Kiskun",
    "State_Abbreviation": "BK",
    "Latitude": 46.2431,
    "Longitude": 19.1461
  },
  {
    "Postal_Code": 6447,
    "Place_Name": "Fels?szentiván",
    "State": "Bács-Kiskun",
    "State_Abbreviation": "BK",
    "Latitude": 46.195,
    "Longitude": 19.1903
  },
  {
    "Postal_Code": 6448,
    "Place_Name": "Csávoly",
    "State": "Bács-Kiskun",
    "State_Abbreviation": "BK",
    "Latitude": 46.1892,
    "Longitude": 19.1467
  },
  {
    "Postal_Code": 6449,
    "Place_Name": "Mélykút",
    "State": "Bács-Kiskun",
    "State_Abbreviation": "BK",
    "Latitude": 46.2111,
    "Longitude": 19.3869
  },
  {
    "Postal_Code": 6451,
    "Place_Name": "Tataháza",
    "State": "Bács-Kiskun",
    "State_Abbreviation": "BK",
    "Latitude": 46.1742,
    "Longitude": 19.3061
  },
  {
    "Postal_Code": 6452,
    "Place_Name": "Mátételke",
    "State": "Bács-Kiskun",
    "State_Abbreviation": "BK",
    "Latitude": 46.1667,
    "Longitude": 19.2833
  },
  {
    "Postal_Code": 6453,
    "Place_Name": "Bácsbokod",
    "State": "Bács-Kiskun",
    "State_Abbreviation": "BK",
    "Latitude": 46.1219,
    "Longitude": 19.1589
  },
  {
    "Postal_Code": 6454,
    "Place_Name": "Bácsborsód",
    "State": "Bács-Kiskun",
    "State_Abbreviation": "BK",
    "Latitude": 46.0964,
    "Longitude": 19.1581
  },
  {
    "Postal_Code": 6455,
    "Place_Name": "Katymár",
    "State": "Bács-Kiskun",
    "State_Abbreviation": "BK",
    "Latitude": 46.0322,
    "Longitude": 19.2108
  },
  {
    "Postal_Code": 6456,
    "Place_Name": "Madaras",
    "State": "Bács-Kiskun",
    "State_Abbreviation": "BK",
    "Latitude": 46.055,
    "Longitude": 19.2667
  },
  {
    "Postal_Code": 6500,
    "Place_Name": "Baja",
    "State": "Bács-Kiskun",
    "State_Abbreviation": "BK",
    "Latitude": 46.1833,
    "Longitude": 18.9667
  },
  {
    "Postal_Code": 6501,
    "Place_Name": "Baja",
    "State": "Bács-Kiskun",
    "State_Abbreviation": "BK",
    "Latitude": 46.1833,
    "Longitude": 18.9667
  },
  {
    "Postal_Code": 6502,
    "Place_Name": "Baja",
    "State": "Bács-Kiskun",
    "State_Abbreviation": "BK",
    "Latitude": 46.1833,
    "Longitude": 18.9667
  },
  {
    "Postal_Code": 6503,
    "Place_Name": "Baja",
    "State": "Bács-Kiskun",
    "State_Abbreviation": "BK",
    "Latitude": 46.1833,
    "Longitude": 18.9667
  },
  {
    "Postal_Code": 6511,
    "Place_Name": "Bácsszentgyörgy",
    "State": "Bács-Kiskun",
    "State_Abbreviation": "BK",
    "Latitude": 45.9722,
    "Longitude": 19.0389
  },
  {
    "Postal_Code": 6512,
    "Place_Name": "Szeremle",
    "State": "Bács-Kiskun",
    "State_Abbreviation": "BK",
    "Latitude": 46.15,
    "Longitude": 18.8833
  },
  {
    "Postal_Code": 6513,
    "Place_Name": "Dunafalva",
    "State": "Bács-Kiskun",
    "State_Abbreviation": "BK",
    "Latitude": 46.0611,
    "Longitude": 18.9611
  },
  {
    "Postal_Code": 6521,
    "Place_Name": "Vaskút",
    "State": "Bács-Kiskun",
    "State_Abbreviation": "BK",
    "Latitude": 46.1167,
    "Longitude": 18.9833
  },
  {
    "Postal_Code": 6522,
    "Place_Name": "Gara",
    "State": "Bács-Kiskun",
    "State_Abbreviation": "BK",
    "Latitude": 46.0319,
    "Longitude": 19.0428
  },
  {
    "Postal_Code": 6523,
    "Place_Name": "Csátalja",
    "State": "Bács-Kiskun",
    "State_Abbreviation": "BK",
    "Latitude": 46.0333,
    "Longitude": 18.95
  },
  {
    "Postal_Code": 6524,
    "Place_Name": "Dávod",
    "State": "Bács-Kiskun",
    "State_Abbreviation": "BK",
    "Latitude": 45.995,
    "Longitude": 18.9172
  },
  {
    "Postal_Code": 6525,
    "Place_Name": "Hercegszántó",
    "State": "Bács-Kiskun",
    "State_Abbreviation": "BK",
    "Latitude": 45.95,
    "Longitude": 18.9392
  },
  {
    "Postal_Code": 6527,
    "Place_Name": "Nagybaracska",
    "State": "Bács-Kiskun",
    "State_Abbreviation": "BK",
    "Latitude": 46.05,
    "Longitude": 18.9
  },
  {
    "Postal_Code": 6528,
    "Place_Name": "Bátmonostor",
    "State": "Bács-Kiskun",
    "State_Abbreviation": "BK",
    "Latitude": 46.1,
    "Longitude": 18.9333
  },
  {
    "Postal_Code": 1011,
    "Place_Name": "Budapest",
    "State": "Budapest",
    "State_Abbreviation": "BU",
    "Latitude": 47.5011,
    "Longitude": 19.0469
  },
  {
    "Postal_Code": 1012,
    "Place_Name": "Budapest",
    "State": "Budapest",
    "State_Abbreviation": "BU",
    "Latitude": 47.5,
    "Longitude": 19.0833
  },
  {
    "Postal_Code": 1013,
    "Place_Name": "Budapest",
    "State": "Budapest",
    "State_Abbreviation": "BU",
    "Latitude": 47.4961,
    "Longitude": 19.0309
  },
  {
    "Postal_Code": 1014,
    "Place_Name": "Budapest",
    "State": "Budapest",
    "State_Abbreviation": "BU",
    "Latitude": 47.5034,
    "Longitude": 19.0349
  },
  {
    "Postal_Code": 1015,
    "Place_Name": "Budapest",
    "State": "Budapest",
    "State_Abbreviation": "BU",
    "Latitude": 47.5,
    "Longitude": 19.0833
  },
  {
    "Postal_Code": 1016,
    "Place_Name": "Budapest",
    "State": "Budapest",
    "State_Abbreviation": "BU",
    "Latitude": 47.48,
    "Longitude": 19.02
  },
  {
    "Postal_Code": 1021,
    "Place_Name": "Budapest",
    "State": "Budapest",
    "State_Abbreviation": "BU",
    "Latitude": 47.496,
    "Longitude": 19.0771
  },
  {
    "Postal_Code": 1022,
    "Place_Name": "Budapest",
    "State": "Budapest",
    "State_Abbreviation": "BU",
    "Latitude": 47.5,
    "Longitude": 19.0833
  },
  {
    "Postal_Code": 1023,
    "Place_Name": "Budapest",
    "State": "Budapest",
    "State_Abbreviation": "BU",
    "Latitude": 47.521,
    "Longitude": 19.0347
  },
  {
    "Postal_Code": 1024,
    "Place_Name": "Budapest",
    "State": "Budapest",
    "State_Abbreviation": "BU",
    "Latitude": 47.507,
    "Longitude": 19.0569
  },
  {
    "Postal_Code": 1025,
    "Place_Name": "Budapest",
    "State": "Budapest",
    "State_Abbreviation": "BU",
    "Latitude": 47.403,
    "Longitude": 19.0915
  },
  {
    "Postal_Code": 1026,
    "Place_Name": "Budapest",
    "State": "Budapest",
    "State_Abbreviation": "BU",
    "Latitude": 47.5117,
    "Longitude": 19.0131
  },
  {
    "Postal_Code": 1027,
    "Place_Name": "Budapest",
    "State": "Budapest",
    "State_Abbreviation": "BU",
    "Latitude": 47.5083,
    "Longitude": 19.0386
  },
  {
    "Postal_Code": 1028,
    "Place_Name": "Budapest",
    "State": "Budapest",
    "State_Abbreviation": "BU",
    "Latitude": 47.5,
    "Longitude": 19.0833
  },
  {
    "Postal_Code": 1029,
    "Place_Name": "Budapest",
    "State": "Budapest",
    "State_Abbreviation": "BU",
    "Latitude": 47.5,
    "Longitude": 19.0833
  },
  {
    "Postal_Code": 1031,
    "Place_Name": "Budapest",
    "State": "Budapest",
    "State_Abbreviation": "BU",
    "Latitude": 47.5729,
    "Longitude": 19.0538
  },
  {
    "Postal_Code": 1032,
    "Place_Name": "Budapest",
    "State": "Budapest",
    "State_Abbreviation": "BU",
    "Latitude": 47.5,
    "Longitude": 19.0833
  },
  {
    "Postal_Code": 1033,
    "Place_Name": "Budapest",
    "State": "Budapest",
    "State_Abbreviation": "BU",
    "Latitude": 47.5,
    "Longitude": 19.0833
  },
  {
    "Postal_Code": 1034,
    "Place_Name": "Budapest",
    "State": "Budapest",
    "State_Abbreviation": "BU",
    "Latitude": 47.5,
    "Longitude": 19.0833
  },
  {
    "Postal_Code": 1035,
    "Place_Name": "Budapest",
    "State": "Budapest",
    "State_Abbreviation": "BU",
    "Latitude": 47.5,
    "Longitude": 19.0833
  },
  {
    "Postal_Code": 1036,
    "Place_Name": "Budapest",
    "State": "Budapest",
    "State_Abbreviation": "BU",
    "Latitude": 47.5328,
    "Longitude": 19.0419
  },
  {
    "Postal_Code": 1037,
    "Place_Name": "Budapest",
    "State": "Budapest",
    "State_Abbreviation": "BU",
    "Latitude": 47.5,
    "Longitude": 19.0833
  },
  {
    "Postal_Code": 1038,
    "Place_Name": "Budapest",
    "State": "Budapest",
    "State_Abbreviation": "BU",
    "Latitude": 47.5915,
    "Longitude": 19.0486
  },
  {
    "Postal_Code": 1039,
    "Place_Name": "Budapest",
    "State": "Budapest",
    "State_Abbreviation": "BU",
    "Latitude": 47.5562,
    "Longitude": 19.0684
  },
  {
    "Postal_Code": 1041,
    "Place_Name": "Budapest",
    "State": "Budapest",
    "State_Abbreviation": "BU",
    "Latitude": 47.5,
    "Longitude": 19.0833
  },
  {
    "Postal_Code": 1042,
    "Place_Name": "Budapest",
    "State": "Budapest",
    "State_Abbreviation": "BU",
    "Latitude": 47.5,
    "Longitude": 19.0833
  },
  {
    "Postal_Code": 1043,
    "Place_Name": "Budapest",
    "State": "Budapest",
    "State_Abbreviation": "BU",
    "Latitude": 47.5,
    "Longitude": 19.0833
  },
  {
    "Postal_Code": 1044,
    "Place_Name": "Budapest",
    "State": "Budapest",
    "State_Abbreviation": "BU",
    "Latitude": 47.5,
    "Longitude": 19.0833
  },
  {
    "Postal_Code": 1045,
    "Place_Name": "Budapest",
    "State": "Budapest",
    "State_Abbreviation": "BU",
    "Latitude": 47.5,
    "Longitude": 19.0833
  },
  {
    "Postal_Code": 1046,
    "Place_Name": "Budapest",
    "State": "Budapest",
    "State_Abbreviation": "BU",
    "Latitude": 47.5,
    "Longitude": 19.0833
  },
  {
    "Postal_Code": 1047,
    "Place_Name": "Budapest",
    "State": "Budapest",
    "State_Abbreviation": "BU",
    "Latitude": 47.5,
    "Longitude": 19.0833
  },
  {
    "Postal_Code": 1048,
    "Place_Name": "Budapest",
    "State": "Budapest",
    "State_Abbreviation": "BU",
    "Latitude": 47.5,
    "Longitude": 19.0833
  },
  {
    "Postal_Code": 1051,
    "Place_Name": "Budapest",
    "State": "Budapest",
    "State_Abbreviation": "BU",
    "Latitude": 47.4986,
    "Longitude": 19.0499
  },
  {
    "Postal_Code": 1052,
    "Place_Name": "Budapest",
    "State": "Budapest",
    "State_Abbreviation": "BU",
    "Latitude": 47.4968,
    "Longitude": 19.0555
  },
  {
    "Postal_Code": 1053,
    "Place_Name": "Budapest",
    "State": "Budapest",
    "State_Abbreviation": "BU",
    "Latitude": 47.4839,
    "Longitude": 19.0597
  },
  {
    "Postal_Code": 1054,
    "Place_Name": "Budapest",
    "State": "Budapest",
    "State_Abbreviation": "BU",
    "Latitude": 47.5068,
    "Longitude": 19.0526
  },
  {
    "Postal_Code": 1055,
    "Place_Name": "Budapest",
    "State": "Budapest",
    "State_Abbreviation": "BU",
    "Latitude": 47.5,
    "Longitude": 19.0833
  },
  {
    "Postal_Code": 1056,
    "Place_Name": "Budapest",
    "State": "Budapest",
    "State_Abbreviation": "BU",
    "Latitude": 47.4926,
    "Longitude": 19.0516
  },
  {
    "Postal_Code": 1061,
    "Place_Name": "Budapest",
    "State": "Budapest",
    "State_Abbreviation": "BU",
    "Latitude": 47.4996,
    "Longitude": 19.0574
  },
  {
    "Postal_Code": 1062,
    "Place_Name": "Budapest",
    "State": "Budapest",
    "State_Abbreviation": "BU",
    "Latitude": 47.525,
    "Longitude": 19.0766
  },
  {
    "Postal_Code": 1063,
    "Place_Name": "Budapest",
    "State": "Budapest",
    "State_Abbreviation": "BU",
    "Latitude": 47.5102,
    "Longitude": 19.0702
  },
  {
    "Postal_Code": 1064,
    "Place_Name": "Budapest",
    "State": "Budapest",
    "State_Abbreviation": "BU",
    "Latitude": 47.5062,
    "Longitude": 19.069
  },
  {
    "Postal_Code": 1065,
    "Place_Name": "Budapest",
    "State": "Budapest",
    "State_Abbreviation": "BU",
    "Latitude": 47.4767,
    "Longitude": 19.0851
  },
  {
    "Postal_Code": 1066,
    "Place_Name": "Budapest",
    "State": "Budapest",
    "State_Abbreviation": "BU",
    "Latitude": 47.5075,
    "Longitude": 19.0589
  },
  {
    "Postal_Code": 1067,
    "Place_Name": "Budapest",
    "State": "Budapest",
    "State_Abbreviation": "BU",
    "Latitude": 47.5077,
    "Longitude": 19.0602
  },
  {
    "Postal_Code": 1068,
    "Place_Name": "Budapest",
    "State": "Budapest",
    "State_Abbreviation": "BU",
    "Latitude": 47.5096,
    "Longitude": 19.0717
  },
  {
    "Postal_Code": 1071,
    "Place_Name": "Budapest",
    "State": "Budapest",
    "State_Abbreviation": "BU",
    "Latitude": 47.5,
    "Longitude": 19.0833
  },
  {
    "Postal_Code": 1072,
    "Place_Name": "Budapest",
    "State": "Budapest",
    "State_Abbreviation": "BU",
    "Latitude": 47.4997,
    "Longitude": 19.0716
  },
  {
    "Postal_Code": 1073,
    "Place_Name": "Budapest",
    "State": "Budapest",
    "State_Abbreviation": "BU",
    "Latitude": 47.4992,
    "Longitude": 19.0718
  },
  {
    "Postal_Code": 1074,
    "Place_Name": "Budapest",
    "State": "Budapest",
    "State_Abbreviation": "BU",
    "Latitude": 47.4768,
    "Longitude": 19.071
  },
  {
    "Postal_Code": 1075,
    "Place_Name": "Budapest",
    "State": "Budapest",
    "State_Abbreviation": "BU",
    "Latitude": 47.4971,
    "Longitude": 19.0566
  },
  {
    "Postal_Code": 1076,
    "Place_Name": "Budapest",
    "State": "Budapest",
    "State_Abbreviation": "BU",
    "Latitude": 47.5,
    "Longitude": 19.0833
  },
  {
    "Postal_Code": 1077,
    "Place_Name": "Budapest",
    "State": "Budapest",
    "State_Abbreviation": "BU",
    "Latitude": 47.5007,
    "Longitude": 19.0786
  },
  {
    "Postal_Code": 1078,
    "Place_Name": "Budapest",
    "State": "Budapest",
    "State_Abbreviation": "BU",
    "Latitude": 47.5034,
    "Longitude": 19.0821
  },
  {
    "Postal_Code": 1081,
    "Place_Name": "Budapest",
    "State": "Budapest",
    "State_Abbreviation": "BU",
    "Latitude": 47.4946,
    "Longitude": 19.0776
  },
  {
    "Postal_Code": 1082,
    "Place_Name": "Budapest",
    "State": "Budapest",
    "State_Abbreviation": "BU",
    "Latitude": 47.514,
    "Longitude": 19.0788
  },
  {
    "Postal_Code": 1083,
    "Place_Name": "Budapest",
    "State": "Budapest",
    "State_Abbreviation": "BU",
    "Latitude": 47.5,
    "Longitude": 19.0833
  },
  {
    "Postal_Code": 1084,
    "Place_Name": "Budapest",
    "State": "Budapest",
    "State_Abbreviation": "BU",
    "Latitude": 47.5,
    "Longitude": 19.0833
  },
  {
    "Postal_Code": 1085,
    "Place_Name": "Budapest",
    "State": "Budapest",
    "State_Abbreviation": "BU",
    "Latitude": 47.497,
    "Longitude": 19.0756
  },
  {
    "Postal_Code": 1086,
    "Place_Name": "Budapest",
    "State": "Budapest",
    "State_Abbreviation": "BU",
    "Latitude": 47.5,
    "Longitude": 19.0833
  },
  {
    "Postal_Code": 1087,
    "Place_Name": "Budapest",
    "State": "Budapest",
    "State_Abbreviation": "BU",
    "Latitude": 47.4996,
    "Longitude": 19.0817
  },
  {
    "Postal_Code": 1088,
    "Place_Name": "Budapest",
    "State": "Budapest",
    "State_Abbreviation": "BU",
    "Latitude": 47.4902,
    "Longitude": 19.0905
  },
  {
    "Postal_Code": 1089,
    "Place_Name": "Budapest",
    "State": "Budapest",
    "State_Abbreviation": "BU",
    "Latitude": 47.4935,
    "Longitude": 19.0882
  },
  {
    "Postal_Code": 1091,
    "Place_Name": "Budapest",
    "State": "Budapest",
    "State_Abbreviation": "BU",
    "Latitude": 47.5,
    "Longitude": 19.0833
  },
  {
    "Postal_Code": 1092,
    "Place_Name": "Budapest",
    "State": "Budapest",
    "State_Abbreviation": "BU",
    "Latitude": 47.5,
    "Longitude": 19.0833
  },
  {
    "Postal_Code": 1093,
    "Place_Name": "Budapest",
    "State": "Budapest",
    "State_Abbreviation": "BU",
    "Latitude": 47.4919,
    "Longitude": 19.0691
  },
  {
    "Postal_Code": 1094,
    "Place_Name": "Budapest",
    "State": "Budapest",
    "State_Abbreviation": "BU",
    "Latitude": 47.481,
    "Longitude": 19.0724
  },
  {
    "Postal_Code": 1095,
    "Place_Name": "Budapest",
    "State": "Budapest",
    "State_Abbreviation": "BU",
    "Latitude": 47.4845,
    "Longitude": 19.0492
  },
  {
    "Postal_Code": 1096,
    "Place_Name": "Budapest",
    "State": "Budapest",
    "State_Abbreviation": "BU",
    "Latitude": 47.5,
    "Longitude": 19.0833
  },
  {
    "Postal_Code": 1097,
    "Place_Name": "Budapest",
    "State": "Budapest",
    "State_Abbreviation": "BU",
    "Latitude": 47.4892,
    "Longitude": 19.074
  },
  {
    "Postal_Code": 1098,
    "Place_Name": "Budapest",
    "State": "Budapest",
    "State_Abbreviation": "BU",
    "Latitude": 47.5,
    "Longitude": 19.0833
  },
  {
    "Postal_Code": 1101,
    "Place_Name": "Budapest",
    "State": "Budapest",
    "State_Abbreviation": "BU",
    "Latitude": 47.5,
    "Longitude": 19.0833
  },
  {
    "Postal_Code": 1102,
    "Place_Name": "Budapest",
    "State": "Budapest",
    "State_Abbreviation": "BU",
    "Latitude": 47.5,
    "Longitude": 19.0833
  },
  {
    "Postal_Code": 1103,
    "Place_Name": "Budapest",
    "State": "Budapest",
    "State_Abbreviation": "BU",
    "Latitude": 47.5,
    "Longitude": 19.0833
  },
  {
    "Postal_Code": 1104,
    "Place_Name": "Budapest",
    "State": "Budapest",
    "State_Abbreviation": "BU",
    "Latitude": 47.5,
    "Longitude": 19.0833
  },
  {
    "Postal_Code": 1105,
    "Place_Name": "Budapest",
    "State": "Budapest",
    "State_Abbreviation": "BU",
    "Latitude": 47.5,
    "Longitude": 19.0833
  },
  {
    "Postal_Code": 1106,
    "Place_Name": "Budapest",
    "State": "Budapest",
    "State_Abbreviation": "BU",
    "Latitude": 47.5032,
    "Longitude": 19.1367
  },
  {
    "Postal_Code": 1107,
    "Place_Name": "Budapest",
    "State": "Budapest",
    "State_Abbreviation": "BU",
    "Latitude": 47.5,
    "Longitude": 19.0833
  },
  {
    "Postal_Code": 1108,
    "Place_Name": "Budapest",
    "State": "Budapest",
    "State_Abbreviation": "BU",
    "Latitude": 47.5,
    "Longitude": 19.0833
  },
  {
    "Postal_Code": 1111,
    "Place_Name": "Budapest",
    "State": "Budapest",
    "State_Abbreviation": "BU",
    "Latitude": 47.482,
    "Longitude": 19.0536
  },
  {
    "Postal_Code": 1112,
    "Place_Name": "Budapest",
    "State": "Budapest",
    "State_Abbreviation": "BU",
    "Latitude": 47.4734,
    "Longitude": 19.0076
  },
  {
    "Postal_Code": 1113,
    "Place_Name": "Budapest",
    "State": "Budapest",
    "State_Abbreviation": "BU",
    "Latitude": 47.4748,
    "Longitude": 19.037
  },
  {
    "Postal_Code": 1114,
    "Place_Name": "Budapest",
    "State": "Budapest",
    "State_Abbreviation": "BU",
    "Latitude": 47.5,
    "Longitude": 19.0833
  },
  {
    "Postal_Code": 1115,
    "Place_Name": "Budapest",
    "State": "Budapest",
    "State_Abbreviation": "BU",
    "Latitude": 47.5,
    "Longitude": 19.0833
  },
  {
    "Postal_Code": 1116,
    "Place_Name": "Budapest",
    "State": "Budapest",
    "State_Abbreviation": "BU",
    "Latitude": 47.444,
    "Longitude": 19.041
  },
  {
    "Postal_Code": 1117,
    "Place_Name": "Budapest",
    "State": "Budapest",
    "State_Abbreviation": "BU",
    "Latitude": 47.501,
    "Longitude": 19.038
  },
  {
    "Postal_Code": 1118,
    "Place_Name": "Budapest",
    "State": "Budapest",
    "State_Abbreviation": "BU",
    "Latitude": 47.4846,
    "Longitude": 19.0334
  },
  {
    "Postal_Code": 1119,
    "Place_Name": "Budapest",
    "State": "Budapest",
    "State_Abbreviation": "BU",
    "Latitude": 47.4571,
    "Longitude": 19.0402
  },
  {
    "Postal_Code": 1121,
    "Place_Name": "Budapest",
    "State": "Budapest",
    "State_Abbreviation": "BU",
    "Latitude": 47.5014,
    "Longitude": 19.0078
  },
  {
    "Postal_Code": 1122,
    "Place_Name": "Budapest",
    "State": "Budapest",
    "State_Abbreviation": "BU",
    "Latitude": 47.5,
    "Longitude": 19.0833
  },
  {
    "Postal_Code": 1123,
    "Place_Name": "Budapest",
    "State": "Budapest",
    "State_Abbreviation": "BU",
    "Latitude": 47.4942,
    "Longitude": 19.024
  },
  {
    "Postal_Code": 1124,
    "Place_Name": "Budapest",
    "State": "Budapest",
    "State_Abbreviation": "BU",
    "Latitude": 47.5,
    "Longitude": 19.0833
  },
  {
    "Postal_Code": 1125,
    "Place_Name": "Budapest",
    "State": "Budapest",
    "State_Abbreviation": "BU",
    "Latitude": 47.5,
    "Longitude": 19.0833
  },
  {
    "Postal_Code": 1126,
    "Place_Name": "Budapest",
    "State": "Budapest",
    "State_Abbreviation": "BU",
    "Latitude": 47.5,
    "Longitude": 19.0833
  },
  {
    "Postal_Code": 1131,
    "Place_Name": "Budapest",
    "State": "Budapest",
    "State_Abbreviation": "BU",
    "Latitude": 47.5,
    "Longitude": 19.0833
  },
  {
    "Postal_Code": 1132,
    "Place_Name": "Budapest",
    "State": "Budapest",
    "State_Abbreviation": "BU",
    "Latitude": 47.4968,
    "Longitude": 19.0776
  },
  {
    "Postal_Code": 1133,
    "Place_Name": "Budapest",
    "State": "Budapest",
    "State_Abbreviation": "BU",
    "Latitude": 47.5223,
    "Longitude": 19.0564
  },
  {
    "Postal_Code": 1134,
    "Place_Name": "Budapest",
    "State": "Budapest",
    "State_Abbreviation": "BU",
    "Latitude": 47.5243,
    "Longitude": 19.0647
  },
  {
    "Postal_Code": 1135,
    "Place_Name": "Budapest",
    "State": "Budapest",
    "State_Abbreviation": "BU",
    "Latitude": 47.5354,
    "Longitude": 19.0818
  },
  {
    "Postal_Code": 1136,
    "Place_Name": "Budapest",
    "State": "Budapest",
    "State_Abbreviation": "BU",
    "Latitude": 47.5,
    "Longitude": 19.0833
  },
  {
    "Postal_Code": 1137,
    "Place_Name": "Budapest",
    "State": "Budapest",
    "State_Abbreviation": "BU",
    "Latitude": 47.5086,
    "Longitude": 19.0624
  },
  {
    "Postal_Code": 1138,
    "Place_Name": "Budapest",
    "State": "Budapest",
    "State_Abbreviation": "BU",
    "Latitude": 47.5239,
    "Longitude": 19.0455
  },
  {
    "Postal_Code": 1139,
    "Place_Name": "Budapest",
    "State": "Budapest",
    "State_Abbreviation": "BU",
    "Latitude": 47.5,
    "Longitude": 19.0833
  },
  {
    "Postal_Code": 1141,
    "Place_Name": "Budapest",
    "State": "Budapest",
    "State_Abbreviation": "BU",
    "Latitude": 47.4992,
    "Longitude": 19.0688
  },
  {
    "Postal_Code": 1142,
    "Place_Name": "Budapest",
    "State": "Budapest",
    "State_Abbreviation": "BU",
    "Latitude": 47.515,
    "Longitude": 19.0936
  },
  {
    "Postal_Code": 1143,
    "Place_Name": "Budapest",
    "State": "Budapest",
    "State_Abbreviation": "BU",
    "Latitude": 47.5139,
    "Longitude": 19.1268
  },
  {
    "Postal_Code": 1144,
    "Place_Name": "Budapest",
    "State": "Budapest",
    "State_Abbreviation": "BU",
    "Latitude": 47.5,
    "Longitude": 19.0833
  },
  {
    "Postal_Code": 1145,
    "Place_Name": "Budapest",
    "State": "Budapest",
    "State_Abbreviation": "BU",
    "Latitude": 47.5141,
    "Longitude": 19.1038
  },
  {
    "Postal_Code": 1146,
    "Place_Name": "Budapest",
    "State": "Budapest",
    "State_Abbreviation": "BU",
    "Latitude": 47.5067,
    "Longitude": 19.0836
  },
  {
    "Postal_Code": 1147,
    "Place_Name": "Budapest",
    "State": "Budapest",
    "State_Abbreviation": "BU",
    "Latitude": 47.5,
    "Longitude": 19.0833
  },
  {
    "Postal_Code": 1148,
    "Place_Name": "Budapest",
    "State": "Budapest",
    "State_Abbreviation": "BU",
    "Latitude": 47.504,
    "Longitude": 19.1192
  },
  {
    "Postal_Code": 1149,
    "Place_Name": "Budapest",
    "State": "Budapest",
    "State_Abbreviation": "BU",
    "Latitude": 47.5139,
    "Longitude": 19.1268
  },
  {
    "Postal_Code": 1151,
    "Place_Name": "Budapest",
    "State": "Budapest",
    "State_Abbreviation": "BU",
    "Latitude": 47.5,
    "Longitude": 19.0833
  },
  {
    "Postal_Code": 1152,
    "Place_Name": "Budapest",
    "State": "Budapest",
    "State_Abbreviation": "BU",
    "Latitude": 47.5481,
    "Longitude": 19.1306
  },
  {
    "Postal_Code": 1153,
    "Place_Name": "Budapest",
    "State": "Budapest",
    "State_Abbreviation": "BU",
    "Latitude": 47.5,
    "Longitude": 19.0833
  },
  {
    "Postal_Code": 1154,
    "Place_Name": "Budapest",
    "State": "Budapest",
    "State_Abbreviation": "BU",
    "Latitude": 47.5,
    "Longitude": 19.0833
  },
  {
    "Postal_Code": 1155,
    "Place_Name": "Budapest",
    "State": "Budapest",
    "State_Abbreviation": "BU",
    "Latitude": 47.5,
    "Longitude": 19.0833
  },
  {
    "Postal_Code": 1156,
    "Place_Name": "Budapest",
    "State": "Budapest",
    "State_Abbreviation": "BU",
    "Latitude": 47.5,
    "Longitude": 19.0833
  },
  {
    "Postal_Code": 1157,
    "Place_Name": "Budapest",
    "State": "Budapest",
    "State_Abbreviation": "BU",
    "Latitude": 47.5,
    "Longitude": 19.0833
  },
  {
    "Postal_Code": 1158,
    "Place_Name": "Budapest",
    "State": "Budapest",
    "State_Abbreviation": "BU",
    "Latitude": 47.5,
    "Longitude": 19.0833
  },
  {
    "Postal_Code": 1161,
    "Place_Name": "Budapest",
    "State": "Budapest",
    "State_Abbreviation": "BU",
    "Latitude": 47.5,
    "Longitude": 19.0833
  },
  {
    "Postal_Code": 1162,
    "Place_Name": "Budapest",
    "State": "Budapest",
    "State_Abbreviation": "BU",
    "Latitude": 47.5,
    "Longitude": 19.0833
  },
  {
    "Postal_Code": 1163,
    "Place_Name": "Budapest",
    "State": "Budapest",
    "State_Abbreviation": "BU",
    "Latitude": 47.5,
    "Longitude": 19.0833
  },
  {
    "Postal_Code": 1164,
    "Place_Name": "Budapest",
    "State": "Budapest",
    "State_Abbreviation": "BU",
    "Latitude": 47.5,
    "Longitude": 19.0833
  },
  {
    "Postal_Code": 1165,
    "Place_Name": "Budapest",
    "State": "Budapest",
    "State_Abbreviation": "BU",
    "Latitude": 47.5,
    "Longitude": 19.0833
  },
  {
    "Postal_Code": 1171,
    "Place_Name": "Budapest",
    "State": "Budapest",
    "State_Abbreviation": "BU",
    "Latitude": 47.5,
    "Longitude": 19.0833
  },
  {
    "Postal_Code": 1172,
    "Place_Name": "Budapest",
    "State": "Budapest",
    "State_Abbreviation": "BU",
    "Latitude": 47.5,
    "Longitude": 19.0833
  },
  {
    "Postal_Code": 1173,
    "Place_Name": "Budapest",
    "State": "Budapest",
    "State_Abbreviation": "BU",
    "Latitude": 47.5231,
    "Longitude": 19.0554
  },
  {
    "Postal_Code": 1174,
    "Place_Name": "Budapest",
    "State": "Budapest",
    "State_Abbreviation": "BU",
    "Latitude": 47.5,
    "Longitude": 19.0833
  },
  {
    "Postal_Code": 1181,
    "Place_Name": "Budapest",
    "State": "Budapest",
    "State_Abbreviation": "BU",
    "Latitude": 47.5,
    "Longitude": 19.0833
  },
  {
    "Postal_Code": 1182,
    "Place_Name": "Budapest",
    "State": "Budapest",
    "State_Abbreviation": "BU",
    "Latitude": 47.5,
    "Longitude": 19.0833
  },
  {
    "Postal_Code": 1183,
    "Place_Name": "Budapest",
    "State": "Budapest",
    "State_Abbreviation": "BU",
    "Latitude": 47.5,
    "Longitude": 19.0833
  },
  {
    "Postal_Code": 1184,
    "Place_Name": "Budapest",
    "State": "Budapest",
    "State_Abbreviation": "BU",
    "Latitude": 47.5,
    "Longitude": 19.0833
  },
  {
    "Postal_Code": 1185,
    "Place_Name": "Budapest",
    "State": "Budapest",
    "State_Abbreviation": "BU",
    "Latitude": 47.5,
    "Longitude": 19.0833
  },
  {
    "Postal_Code": 1186,
    "Place_Name": "Budapest",
    "State": "Budapest",
    "State_Abbreviation": "BU",
    "Latitude": 47.5,
    "Longitude": 19.0833
  },
  {
    "Postal_Code": 1188,
    "Place_Name": "Budapest",
    "State": "Budapest",
    "State_Abbreviation": "BU",
    "Latitude": 47.5,
    "Longitude": 19.0833
  },
  {
    "Postal_Code": 1191,
    "Place_Name": "Budapest",
    "State": "Budapest",
    "State_Abbreviation": "BU",
    "Latitude": 47.5,
    "Longitude": 19.0833
  },
  {
    "Postal_Code": 1192,
    "Place_Name": "Budapest",
    "State": "Budapest",
    "State_Abbreviation": "BU",
    "Latitude": 47.5,
    "Longitude": 19.0833
  },
  {
    "Postal_Code": 1193,
    "Place_Name": "Budapest",
    "State": "Budapest",
    "State_Abbreviation": "BU",
    "Latitude": 47.5,
    "Longitude": 19.0833
  },
  {
    "Postal_Code": 1194,
    "Place_Name": "Budapest",
    "State": "Budapest",
    "State_Abbreviation": "BU",
    "Latitude": 47.5,
    "Longitude": 19.0833
  },